state,ags,name,lat,lon
01,01001000,Flensburg,54.78252,9.437510000000001
01,01002000,Kiel,54.321775,10.13727
01,01003000,Lübeck,53.866268999999996,10.683932
01,01004000,Neumünster,54.069894999999995,9.988422
01,01051011,Brunsbüttel,53.896665000000006,9.126939
01,01051044,Heide,54.195834,9.095400999999999
01,01051003,Averlak,53.941154000000004,9.182663
01,01051010,Brickeln,54.00849,9.221166
01,01051012,Buchholz,53.987198,9.223594
01,01051016,Burg (Dithmarschen),53.995937,9.258097
01,01051022,Dingen,53.960888,9.125803999999999
01,01051024,Eddelak,53.945505000000004,9.137789
01,01051026,Eggstedt,54.054534999999994,9.259269999999999
01,01051032,Frestedt,54.023639,9.175759
01,01051037,Großenrade,54.022051,9.223436
01,01051051,Hochdonn,54.019565,9.29316
01,01051064,Kuden,53.967853000000005,9.192822
01,01051089,Quickborn,54.009975,9.206619
01,01051097,Sankt Michaelisdonn,53.994438,9.122148
01,01051110,Süderhastedt,54.04991,9.208860000000001
01,01051021,Diekhusen-Fahrstedt,53.942365,9.028338
01,01051034,Friedrichskoog,54.013926,8.89741
01,01051046,Helse,53.97755600000001,9.010226
01,01051057,Kaiser-Wilhelm-Koog,53.942933,8.926364
01,01051062,Kronprinzenkoog,53.971709,8.964497999999999
01,01051072,Marne,53.953694999999996,9.008761
01,01051073,Marnerdeich,53.94846,8.983369
01,01051076,Neufeld,53.907224,9.019046000000001
01,01051077,Neufelderkoog,53.906887,8.968891000000001
01,01051090,Ramhusen,53.94120699999999,9.090658
01,01051103,Schmedeswurth,53.926171999999994,9.040335
01,01051118,Trennewurth,54.000216,9.02715
01,01051119,Volsemenhusen,53.967901,9.065625
01,01051005,Barkenholm,54.237387,9.174339
01,01051008,Bergewöhrden,54.31846899999999,9.209425999999999
01,01051019,Dellstedt,54.237892,9.369143
01,01051020,Delve,54.303978,9.252365
01,01051023,Dörpling,54.260654,9.301925
01,01051030,Fedderingen,54.281144,9.132642
01,01051035,Gaushorn,54.19489599999999,9.225318
01,01051036,Glüsing,54.274547,9.216421
01,01051038,Groven,54.300165,8.989147
01,01051047,Hemme,54.28021,9.010966
01,01051049,Hennstedt,54.283636,9.168248
01,01051052,Hövede,54.243806000000006,9.293409
01,01051053,Hollingstedt,54.290548,9.226797
01,01051058,Karolinenkoog,54.292379000000004,8.965425
01,01051060,Kleve,54.295634,9.123185000000001
01,01051061,Krempel,54.320018999999995,9.027607000000001
01,01051065,Lehe,54.344168,9.025333999999999
01,01051068,Linden,54.252623,9.182428
01,01051071,Lunden,54.33056800000001,9.024249000000001
01,01051080,Norderheistedt,54.24533100000001,9.146139
01,01051088,Pahlen,54.267813000000004,9.296387
01,01051092,Rehm-Flehde-Bargen,54.291775,9.038383
01,01051096,Sankt Annen,54.345413,9.07975
01,01051100,Schalkholz,54.246244,9.257028
01,01051102,Schlichting,54.310140000000004,9.089378
01,01051114,Tellingstedt,54.21996800000001,9.281893
01,01051117,Tielenhemme,54.269463,9.378654
01,01051120,Wallen,54.2845,9.269538
01,01051125,Welmbüttel,54.196873,9.246825999999999
01,01051131,Westerborstel,54.220136,9.260601
01,01051133,Wiemerstedt,54.269296999999995,9.111231
01,01051136,Wrohm,54.212642,9.379505
01,01051139,Süderdorf,54.207468000000006,9.343789
01,01051141,Süderheistedt,54.23483,9.148463000000001
01,01051048,Hemmingstedt,54.148759999999996,9.073155999999999
01,01051067,Lieth,54.15531,9.060773
01,01051069,Lohe-Rickelshof,54.187792,9.065769
01,01051075,Neuenkirchen,54.235651000000004,8.988145
01,01051081,Norderwöhrden,54.192783,9.000232
01,01051082,Nordhastedt,54.17205,9.182991000000001
01,01051087,Ostrohe,54.214,9.130804
01,01051107,Stelle-Wittenwurth,54.262554,9.061114
01,01051113,Wöhrden,54.165463,8.994508
01,01051122,Weddingstedt,54.239275,9.088863
01,01051130,Wesseln,54.208327000000004,9.075443
01,01051001,Albersdorf,54.146556999999994,9.283994999999999
01,01051002,Arkebek,54.159662,9.250325
01,01051004,Bargenstedt,54.09559399999999,9.144199
01,01051006,Barlt,54.012443999999995,9.058002
01,01051015,Bunsoh,54.165521999999996,9.320225
01,01051017,Busenwurth,54.041612,9.041310000000001
01,01051027,Elpersbüttel,54.072963,9.047156
01,01051028,Epenwöhrden,54.112805,9.052894
01,01051039,Gudendorf,54.024744999999996,9.1082
01,01051054,Immenstedt,54.180686,9.299737
01,01051063,Krumstedt,54.068684,9.177954
01,01051074,Meldorf,54.090945,9.068783999999999
01,01051078,Nindorf,54.086721999999995,9.114942999999998
01,01051083,Odderade,54.139384,9.190795
01,01051085,Offenbüttel,54.169258,9.358039
01,01051086,Osterrade,54.190212,9.353264
01,01051098,Sarzbüttel,54.118970999999995,9.184289
01,01051099,Schafstedt,54.079915,9.293675
01,01051104,Schrum,54.187229,9.251667
01,01051126,Wennbüttel,54.13796899999999,9.32237
01,01051134,Windbergen,54.044949,9.117929
01,01051135,Wolmersdorf,54.077114,9.103978
01,01051137,Nordermeldorf,54.104638,9.013655
01,01051138,Tensbüttel-Röst,54.116572,9.237322
01,01051013,Büsum,54.129253000000006,8.860613
01,01051014,Büsumer Deichhausen,54.136175,8.890088
01,01051033,Friedrichsgabekoog,54.157516,8.941082000000002
01,01051043,Hedwigenkoog,54.177985,8.840953
01,01051045,Hellschen-Heringsand-Unterschaar,54.194536,8.872882
01,01051050,Hillgroven,54.227920999999995,8.874901
01,01051079,Norddeich,54.218058,8.899964
01,01051084,Oesterdeichstrich,54.158891000000004,8.900566
01,01051093,Reinsbüttel,54.179072999999995,8.911057000000001
01,01051105,Schülp,54.241971,8.929943
01,01051108,Strübbel,54.260389,8.971812
01,01051109,Süderdeich,54.201710999999996,8.91131
01,01051121,Warwerort,54.141177,8.921723
01,01051127,Wesselburen,54.212159,8.920686
01,01051128,Wesselburener Deichhausen,54.174946999999996,8.937237
01,01051129,Wesselburenerkoog,54.239245,8.876161
01,01051132,Westerdeichstrich,54.162006000000005,8.863517
01,01051140,Oesterwurth,54.210345999999994,8.976801
01,01053032,Geesthacht,53.433384999999994,10.371623
01,01053083,Lauenburg/Elbe,53.374189,10.554267
01,01053090,Mölln,53.629521,10.691022
01,01053100,Ratzeburg,53.699024,10.774492
01,01053116,Schwarzenbek,53.502644999999994,10.477663
01,01053129,Wentorf bei Hamburg,53.491012,10.2519
01,01053008,Behlendorf,53.699475,10.667846
01,01053009,Berkenthin,53.73456899999999,10.638297
01,01053011,Bliestorf,53.768797,10.602527
01,01053024,Düchelsdorf,53.737072,10.580373
01,01053034,Göldenitz,53.722025,10.631501
01,01053061,Kastorf,53.748875,10.570134
01,01053067,Klempau,53.762851,10.660387
01,01053075,Krummesse,53.780122999999996,10.641961
01,01053094,Niendorf bei Berkenthin,53.702417000000004,10.626158
01,01053103,Rondeshagen,53.753642000000006,10.629717
01,01053120,Sierksrade,53.736555,10.600344
01,01053002,Alt Mölln,53.622775,10.658164999999999
01,01053005,Bälau,53.616381000000004,10.621739
01,01053013,Borstorf,53.613074,10.564233999999999
01,01053014,Breitenfelde,53.605112,10.632977
01,01053037,Grambek,53.574025,10.68068
01,01053056,Hornbek,53.5589,10.648548
01,01053084,Lehmrade,53.5947,10.752721000000001
01,01053095,Niendorf/Stecknitz,53.587228,10.609244
01,01053113,Schretstaken,53.58906999999999,10.554081
01,01053125,Talkau,53.57715699999999,10.569208999999999
01,01053134,Woltersdorf,53.5768,10.639911999999999
01,01053010,Besenthal,53.530139,10.743238999999999
01,01053015,Bröthen,53.480408999999995,10.667504
01,01053020,Büchen,53.480926000000004,10.616482000000001
01,01053029,Fitzen,53.493942000000004,10.64667
01,01053035,Göttin,53.533922,10.70332
01,01053046,Gudow,53.555336,10.77219
01,01053048,Güster,53.539519999999996,10.680583
01,01053064,Klein Pampau,53.51268100000001,10.586656
01,01053080,Langenlehsten,53.499816,10.740373
01,01053092,Müssen,53.494949,10.562042
01,01053104,Roseburg,53.531303,10.625016
01,01053115,Schulendorf,53.47331,10.561815
01,01053119,Siebeneichen,53.510828000000004,10.618692999999999
01,01053126,Tramm,53.56323100000001,10.614692999999999
01,01053132,Witzeeze,53.452652,10.610144
01,01053003,Aumühle,53.528449,10.313369999999999
01,01053012,Börnsen,53.476625,10.285511999999999
01,01053023,Dassendorf,53.488608,10.372665
01,01053028,Escheburg,53.467130000000004,10.309429
01,01053050,Hamwarde,53.452847,10.421397
01,01053053,Hohenhorn,53.475564,10.367641
01,01053072,Kröppelshagen-Fahrendorf,53.488589000000005,10.315197
01,01053131,Wiershop,53.442501,10.451895
01,01053133,Wohltorf,53.517253000000004,10.291253999999999
01,01053135,Worth,53.467424,10.409895
01,01053006,Basedow,53.416151,10.583592
01,01053019,Buchhorst,53.38499300000001,10.568335000000001
01,01053022,Dalldorf,53.435818999999995,10.610809
01,01053058,Juliusburg,53.41715,10.506484
01,01053073,Krüzen,53.401518,10.527113
01,01053074,Krukow,53.418864,10.478187
01,01053082,Lanze,53.386341,10.604387
01,01053087,Lütau,53.435860999999996,10.545404
01,01053111,Schnakenbek,53.385426,10.50018
01,01053128,Wangelau,53.453654,10.546476
01,01053001,Albsfelde,53.679956999999995,10.694450999999999
01,01053004,Bäk,53.716345,10.787081
01,01053016,Brunsmark,53.61710600000001,10.750236
01,01053018,Buchholz,53.731393000000004,10.745377000000001
01,01053026,Einhaus,53.714135999999996,10.725697
01,01053030,Fredeburg,53.67435699999999,10.72758
01,01053033,Giesensdorf,53.688272999999995,10.713650999999999
01,01053040,Groß Disnack,53.741974,10.69059
01,01053041,Groß Grönau,53.801387,10.750475999999999
01,01053043,Groß Sarau,53.771586,10.737505
01,01053051,Harmsdorf,53.70040699999999,10.725868
01,01053054,Hollenbek,53.592192000000004,10.819161
01,01053057,Horst,53.625103,10.771156
01,01053062,Kittlitz,53.664235,10.918869
01,01053066,Klein Zecher,53.577413,10.872803
01,01053078,Kulpin,53.71009,10.695812
01,01053088,Mechow,53.71755600000001,10.801815
01,01053093,Mustin,53.68453,10.886235000000001
01,01053098,Pogeez,53.750929000000006,10.729435
01,01053102,Römnitz,53.710716000000005,10.769067999999999
01,01053107,Salem,53.656395999999994,10.827964999999999
01,01053110,Schmilau,53.664589,10.755985
01,01053117,Seedorf,53.619223,10.866843
01,01053123,Sterley,53.620149,10.817794000000001
01,01053136,Ziethen,53.693695,10.809322
01,01053007,Basthorst,53.576616,10.47139
01,01053017,Brunstorf,53.491563,10.425938
01,01053021,Dahmker,53.587821,10.444516
01,01053027,Elmenhorst,53.544876,10.537550999999999
01,01053031,Fuhlenhagen,53.57303100000001,10.526645
01,01053036,Grabau,53.513608999999995,10.519825
01,01053042,Groß Pampau,53.52180799999999,10.560300999999999
01,01053045,Grove,53.528123,10.492067
01,01053047,Gülzow,53.442249,10.490939
01,01053049,Hamfelde,53.597193999999995,10.44893
01,01053052,Havekost,53.539891000000004,10.472892
01,01053059,Kankelau,53.549310999999996,10.56832
01,01053060,Kasseburg,53.567317,10.415258999999999
01,01053070,Köthel,53.606936,10.510002
01,01053071,Kollow,53.46315500000001,10.458799
01,01053076,Kuddewörde,53.587291,10.401900999999999
01,01053089,Möhnsen,53.559974,10.469197
01,01053091,Mühlenrade,53.595838,10.48775
01,01053106,Sahms,53.52580699999999,10.532722999999999
01,01053025,Duvensee,53.693065000000004,10.568
01,01053038,Grinau,53.77553100000001,10.549747
01,01053039,Groß Boden,53.752713,10.452871
01,01053044,Groß Schenkenberg,53.79349200000001,10.56488
01,01053068,Klinkrade,53.716092,10.55033
01,01053069,Koberg,53.639593999999995,10.525960000000001
01,01053077,Kühsen,53.682660999999996,10.615824
01,01053079,Labenz,53.708352000000005,10.524596
01,01053081,Lankau,53.668023,10.665092
01,01053085,Linau,53.643933,10.46755
01,01053086,Lüchow,53.690743999999995,10.529518
01,01053096,Nusse,53.65908,10.575979
01,01053097,Panten,53.664570999999995,10.619769999999999
01,01053099,Poggensee,53.640461,10.579621000000001
01,01053101,Ritzerau,53.663003,10.567544999999999
01,01053108,Sandesneben,53.687957,10.497042
01,01053109,Schiphorst,53.708361,10.461627
01,01053112,Schönberg,53.677154,10.433053999999998
01,01053114,Schürensöhlen,53.76345500000001,10.47204
01,01053118,Siebenbäumen,53.749556999999996,10.525162
01,01053121,Sirksfelde,53.665339,10.509773
01,01053122,Steinhorst,53.720135,10.483141
01,01053124,Stubben,53.732928,10.43068
01,01053127,Walksfelde,53.631901,10.575101
01,01053130,Wentorf (Amt Sandesneben),53.67663,10.474911
01,01054033,Friedrichstadt,54.373459999999994,9.087943
01,01054056,Husum,54.476471999999994,9.050149000000001
01,01054108,Reußenköge,54.602245999999994,8.917982
01,01054138,Tönning,54.319739,8.94334
01,01054168,Sylt,54.89326,8.323668
01,01054035,Kirchspiel Garding,54.321856000000004,8.791506
01,01054036,Garding,54.327962,8.778217
01,01054040,Grothusenkoog,54.302739,8.759033
01,01054063,Katharinenheerd,54.335198999999996,8.828074
01,01054072,Kotzenbüll,54.333778,8.907487
01,01054090,Norderfriedrichskoog,54.400271,8.893583
01,01054095,Oldenswort,54.37228100000001,8.942989
01,01054100,Osterhever,54.385462,8.765555
01,01054104,Poppenbüll,54.361585,8.761168
01,01054113,Sankt Peter-Ording,54.30228100000001,8.640495
01,01054134,Tating,54.325497,8.708511999999999
01,01054135,Tetenbüll,54.352013,8.828234
01,01054140,Tümlauer Koog,54.348337,8.689757
01,01054145,Vollerwiek,54.290681000000006,8.794694
01,01054148,Welt,54.302402,8.79406
01,01054150,Westerhever,54.382315000000006,8.67563
01,01054046,Hörnum (Sylt),54.7565,8.286546000000001
01,01054061,Kampen (Sylt),54.955507999999995,8.342294
01,01054078,List auf Sylt,55.020026,8.436183
01,01054149,Wenningstedt-Braderup (Sylt),54.937796999999996,8.3405
01,01054003,Ahrenviöl,54.531254000000004,9.206895
01,01054004,Ahrenviölfeld,54.534606999999994,9.274084
01,01054011,Behrendorf,54.562059,9.22759
01,01054013,Bondelum,54.556555,9.26682
01,01054041,Haselund,54.591682999999996,9.182961
01,01054057,Immenstedt,54.541449,9.162503
01,01054079,Löwenstedt,54.621612,9.174887
01,01054092,Norstedt,54.588429000000005,9.129313
01,01054101,Oster-Ohrstedt,54.514539,9.227445
01,01054118,Schwesing,54.493899,9.134622
01,01054123,Sollwitt,54.594606000000006,9.228482000000001
01,01054144,Viöl,54.568875,9.180557
01,01054152,Wester-Ohrstedt,54.507226,9.190063
01,01054039,Gröde,54.631686,8.717443
01,01054050,Hallig Hooge,54.568831,8.543775
01,01054074,Langeneß,54.637404000000004,8.613192
01,01054103,Pellworm,54.521283999999994,8.656057
01,01054005,Alkersum,54.708245,8.511244
01,01054015,Borgsum,54.699989,8.460009
01,01054025,Dunsum,54.730715,8.414572
01,01054083,Midlum,54.714878000000006,8.518625
01,01054085,Nebel,54.650612,8.353658
01,01054087,Nieblum,54.691947,8.489438999999999
01,01054089,Norddorf auf Amrum,54.679638,8.332935
01,01054094,Oevenum,54.71009300000001,8.530787
01,01054098,Oldsum,54.732075,8.447735
01,01054129,Süderende,54.725601,8.439339
01,01054143,Utersum,54.71445500000001,8.407243
01,01054158,Witsum,54.698516000000005,8.44106
01,01054160,Wittdün auf Amrum,54.626534,8.392971000000001
01,01054163,Wrixum,54.699417000000004,8.548131
01,01054164,Wyk auf Föhr,54.691093,8.567212
01,01054001,Achtrup,54.78898100000001,9.028319
01,01054009,Aventoft,54.901249,8.822142
01,01054016,Bosbüll,54.822786,8.860437
01,01054017,Braderup,54.835623999999996,8.890293
01,01054018,Bramstedtlund,54.851613,9.086753
01,01054022,Dagebüll,54.730208999999995,8.706381
01,01054027,Ellhöft,54.888716,8.957602
01,01054034,Friedrich-Wilhelm-Lübke-Koog,54.862372,8.631939
01,01054048,Holm,54.83136700000001,8.860525
01,01054055,Humptrup,54.863199,8.864538
01,01054062,Karlum,54.828646,8.975269
01,01054065,Klanxbüll,54.864348,8.679546
01,01054068,Klixbüll,54.80524200000001,8.882448
01,01054073,Ladelund,54.84075,9.025311
01,01054076,Leck,54.771914,8.974572
01,01054077,Lexgaard,54.832021999999995,8.943493
01,01054086,Neukirchen,54.868905000000005,8.733880000000001
01,01054088,Niebüll,54.788141,8.829499
01,01054109,Risum-Lindholm,54.758552,8.860833999999999
01,01054110,Rodenäs,54.888387,8.70031
01,01054124,Sprakebüll,54.775904000000004,9.077167999999999
01,01054125,Stadum,54.736011,9.050473
01,01054126,Stedesand,54.738139000000004,8.925525
01,01054131,Süderlügum,54.872427,8.907944
01,01054136,Tinningstedt,54.811246999999995,8.929787
01,01054142,Uphusum,54.841857999999995,8.84998
01,01054154,Westre,54.856605,8.987549000000001
01,01054165,Galmsbüll,54.76664,8.768821
01,01054166,Emmelsbüll-Horsbüll,54.821847999999996,8.684788000000001
01,01054167,Enge-Sande,54.733387,8.969842
01,01054007,Arlewatt,54.539223,9.083426
01,01054023,Drage,54.353896999999996,9.162165
01,01054026,Elisabeth-Sophien-Koog,54.510068000000004,8.879592
01,01054032,Fresendelf,54.39338000000001,9.248764999999999
01,01054042,Hattstedt,54.528074,9.024735
01,01054043,Hattstedtermarsch,54.548738,8.975187
01,01054052,Horstedt,54.52558199999999,9.069038
01,01054054,Hude,54.387212,9.215821
01,01054070,Koldenbüttel,54.385117,9.06819
01,01054084,Mildstedt,54.463492,9.094038000000001
01,01054091,Nordstrand,54.48718,8.868067
01,01054096,Oldersbek,54.446343000000006,9.166926
01,01054097,Olderup,54.538176,9.112117
01,01054099,Ostenfeld (Husum),54.462866000000005,9.230675
01,01054105,Ramstedt,54.399905000000004,9.167100999999999
01,01054106,Rantrum,54.44051999999999,9.129605999999999
01,01054116,Schwabstedt,54.395651,9.185238
01,01054119,Seeth,54.365930000000006,9.163158000000001
01,01054120,Simonsberg,54.436645,8.972074000000001
01,01054130,Süderhöft,54.381733999999994,9.24249
01,01054132,Südermarsch,54.425929000000004,9.08199
01,01054141,Uelvesbüll,54.415443,8.935322
01,01054156,Winnert,54.433243000000004,9.201381
01,01054157,Wisch,54.408531,9.154149
01,01054159,Wittbek,54.47343299999999,9.204139
01,01054161,Witzwort,54.399483999999994,8.984464
01,01054162,Wobbenbüll,54.530418000000004,8.992516
01,01054002,Ahrenshöft,54.564131999999994,9.069987
01,01054006,Almdorf,54.579116000000006,9.016496
01,01054010,Bargum,54.705068999999995,8.962782
01,01054012,Bohmstedt,54.581229,9.043841
01,01054014,Bordelum,54.635913,8.924922
01,01054019,Bredstedt,54.620073,8.960958
01,01054020,Breklum,54.605121,8.982127
01,01054024,Drelsdorf,54.605990000000006,9.041284
01,01054037,Goldebek,54.678836,9.145817999999998
01,01054038,Goldelund,54.678411,9.107425
01,01054045,Högel,54.643538,9.056667
01,01054059,Joldelund,54.652937,9.139662
01,01054071,Kolkerheide,54.62040699999999,9.130775
01,01054075,Langenhorn,54.67606,8.926359
01,01054080,Lütjenholm,54.684135999999995,9.021561
01,01054093,Ockholm,54.665128,8.827553
01,01054121,Sönnebüll,54.631190000000004,8.995888
01,01054128,Struckum,54.58868199999999,8.994073
01,01054146,Vollstedt,54.623717000000006,9.032722
01,01055001,Ahrensbök,54.01109399999999,10.573058999999999
01,01055004,Bad Schwartau,53.92043100000001,10.695909
01,01055007,Bosau,54.104439,10.429901
01,01055010,Dahme,54.223661,11.08163
01,01055012,Eutin,54.138856000000004,10.614692
01,01055016,Grömitz,54.149249,10.961101
01,01055018,Grube,54.23209,11.03599
01,01055021,Heiligenhafen,54.373048,10.974623
01,01055025,Kellenhusen (Ostsee),54.190749,11.060024
01,01055028,Malente,54.171225,10.554871
01,01055032,Neustadt in Holstein,54.105630000000005,10.816351
01,01055033,Oldenburg in Holstein,54.293147999999995,10.888425999999999
01,01055035,Ratekau,53.947821999999995,10.735075
01,01055040,Stockelsdorf,53.889315,10.649799
01,01055041,Süsel,54.076679000000006,10.717998
01,01055042,Timmendorfer Strand,53.995741,10.771082
01,01055044,Scharbeutz,54.02279300000001,10.750232
01,01055046,Fehmarn,54.478246,11.120128999999999
01,01055014,Göhl,54.284726,10.941851
01,01055015,Gremersdorf,54.332831000000006,10.927673
01,01055017,Großenbrode,54.369696,11.08427
01,01055022,Heringsdorf,54.300431999999994,11.003697
01,01055031,Neukirchen,54.323811,11.015153
01,01055043,Wangels,54.27156899999999,10.763598
01,01055006,Beschendorf,54.182743,10.873043
01,01055011,Damlos,54.243016000000004,10.907708
01,01055020,Harmsdorf,54.243561,10.828832
01,01055023,Kabelhorst,54.215844,10.921118
01,01055027,Lensahn,54.217544999999994,10.883303999999999
01,01055029,Manhagen,54.194998999999996,10.913686
01,01055036,Riepsdorf,54.225359999999995,10.969732
01,01055002,Altenkrempe,54.13298,10.825664999999999
01,01055024,Kasseedorf,54.164965,10.719867
01,01055037,Schashagen,54.134271,10.883528
01,01055038,Schönwalde am Bungsberg,54.187360999999996,10.753453
01,01055039,Sierksdorf,54.066261,10.768366
01,01056002,Barmstedt,53.790385,9.768595
01,01056005,Bönningstedt,53.662388,9.906377
01,01056015,Elmshorn,53.754957999999995,9.655259
01,01056018,Halstenbek,53.633617,9.837557
01,01056021,Hasloh,53.694023,9.91173
01,01056025,Helgoland,54.181505,7.889064
01,01056039,Pinneberg,53.660754000000004,9.793233
01,01056041,Quickborn,53.728836,9.898033999999999
01,01056043,Rellingen,53.652131000000004,9.829654
01,01056044,Schenefeld,53.600981999999995,9.822462
01,01056048,Tornesch,53.698257,9.718707
01,01056049,Uetersen,53.68419599999999,9.662396000000001
01,01056050,Wedel,53.577353,9.705419000000001
01,01056029,Klein Nordende,53.71956899999999,9.654218
01,01056030,Klein Offenseth-Sparrieshoop,53.804947999999996,9.690397
01,01056031,Kölln-Reisiek,53.759232,9.70509
01,01056033,Seester,53.717709,9.598071000000001
01,01056042,Raa-Besenbek,53.747963,9.597611
01,01056045,Seestermühe,53.704049,9.56628
01,01056046,Seeth-Ekholt,53.736948,9.733303999999999
01,01056019,Haselau,53.660647,9.623636
01,01056020,Haseldorf,53.635206999999994,9.598383
01,01056027,Hetlingen,53.607668999999994,9.635425
01,01056006,Bokel,53.864194,9.733886
01,01056010,Brande-Hörnerkirchen,53.853496,9.714072999999999
01,01056038,Osterhorn,53.868679,9.698588
01,01056051,Westerhorn,53.85784399999999,9.682011
01,01056001,Appen,53.659806,9.742706
01,01056016,Groß Nordende,53.70206999999999,9.649515
01,01056023,Heidgraben,53.708552000000005,9.680783
01,01056024,Heist,53.654818999999996,9.656576
01,01056028,Holm,53.622062,9.671854
01,01056036,Moorrege,53.668054000000005,9.659074
01,01056037,Neuendeich,53.676281,9.600258
01,01056003,Bevern,53.75571899999999,9.771042
01,01056004,Bilsen,53.769901000000004,9.87625
01,01056008,Bokholt-Hanredder,53.781752000000004,9.727312
01,01056011,Bullenkuhlen,53.768586,9.751552
01,01056014,Ellerhoop,53.727623,9.770845
01,01056017,Groß Offenseth-Aspern,53.818041,9.73192
01,01056022,Heede,53.783499,9.802298
01,01056026,Hemdingen,53.755233999999994,9.836641
01,01056034,Langeln,53.79393,9.853797
01,01056035,Lutzhorn,53.825517000000005,9.776786999999999
01,01056009,Borstel-Hohenraden,53.689503,9.820331
01,01056013,Ellerbek,53.657165,9.869465
01,01056032,Kummerfeld,53.691612,9.791036
01,01056040,Prisdorf,53.678151,9.761607000000001
01,01056047,Tangstedt,53.679247,9.849699000000001
01,01057001,Ascheberg (Holstein),54.151075,10.341108
01,01057008,Bönebüttel,54.079505000000005,10.0593
01,01057009,Bösdorf,54.14153,10.490762
01,01057057,Plön,54.158288,10.416369
01,01057062,Preetz,54.231866000000004,10.280512
01,01057091,Schwentinental,54.292024,10.232251
01,01057004,Behrensdorf (Ostsee),54.346515000000004,10.603736
01,01057007,Blekendorf,54.276458999999996,10.650894000000001
01,01057013,Dannau,54.240905000000005,10.541132000000001
01,01057021,Giekau,54.317441,10.506159
01,01057026,Helmstorf,54.286643999999995,10.593478
01,01057027,Högsdorf,54.251993999999996,10.615055
01,01057029,Hohenfelde,54.370898,10.496402
01,01057030,Hohwacht (Ostsee),54.320921999999996,10.67371
01,01057034,Kirchnüchel,54.20411,10.680133999999999
01,01057035,Klamp,54.296417000000005,10.534124
01,01057038,Kletkamp,54.249088,10.638094
01,01057048,Lütjenburg,54.294852,10.592236999999999
01,01057055,Panker,54.33034,10.573095
01,01057076,Schwartbuck,54.358264,10.478063
01,01057082,Tröndel,54.342356,10.514076
01,01057015,Dersau,54.118055000000005,10.335939999999999
01,01057017,Dörnick,54.163392,10.360375
01,01057022,Grebin,54.19593199999999,10.494272
01,01057032,Kalübbe,54.118145999999996,10.283107000000001
01,01057045,Lebrade,54.216652,10.422164
01,01057053,Nehmten,54.094848,10.393262
01,01057065,Rantzau,54.253868999999995,10.507361
01,01057067,Rathjensdorf,54.185702,10.427748
01,01057089,Wittmoldt,54.174882,10.349133
01,01057002,Barmissen,54.204995,10.175384
01,01057010,Boksee,54.242982,10.127708
01,01057011,Bothkamp,54.20335600000001,10.134422
01,01057023,Großbarkau,54.225363,10.169008
01,01057031,Honigsee,54.228283,10.187224
01,01057033,Kirchbarkau,54.211515000000006,10.142365
01,01057037,Klein Barkau,54.222719,10.135269000000001
01,01057042,Kühren,54.198376,10.258367
01,01057046,Lehmkuhlen,54.226974,10.360709
01,01057047,Löptin,54.175217,10.215744
01,01057054,Nettelsee,54.174112,10.189086
01,01057058,Pohnsdorf,54.239647,10.249321
01,01057059,Postfeld,54.211309,10.21641
01,01057066,Rastorf,54.272603000000004,10.289064
01,01057070,Schellhorn,54.227596999999996,10.299476
01,01057084,Wahlstorf,54.178082999999994,10.294716000000001
01,01057086,Warnau,54.18792,10.160153999999999
01,01057003,Barsbek,54.404132,10.320134
01,01057006,Bendfeld,54.36415699999999,10.419437
01,01057012,Brodersdorf,54.385481000000006,10.249253999999999
01,01057018,Fahren,54.349552,10.33813
01,01057020,Fiefbergen,54.379311,10.34277
01,01057028,Höhndorf,54.37261899999999,10.370674000000001
01,01057039,Köhn,54.344440000000006,10.455111
01,01057040,Krokau,54.402446,10.341593
01,01057041,Krummbek,54.37814,10.400708999999999
01,01057043,Laboe,54.404031,10.224323
01,01057049,Lutterbek,54.391952,10.276816
01,01057056,Passade,54.366581000000004,10.316786
01,01057060,Prasdorf,54.378679000000005,10.296264
01,01057063,Probsteierhagen,54.362604000000005,10.288376
01,01057073,Schönberg (Holstein),54.39239,10.372475999999999
01,01057078,Stakendorf,54.388445,10.422791
01,01057079,Stein,54.41465899999999,10.268846
01,01057081,Stoltenberg,54.344758999999996,10.346508
01,01057087,Wendtorf,54.409817000000004,10.292375999999999
01,01057088,Wisch,54.411032999999996,10.344244999999999
01,01057016,Dobersdorf,54.318490000000004,10.281513
01,01057044,Lammershagen,54.274508999999995,10.443923
01,01057050,Martensrade,54.279612,10.392528
01,01057052,Mucheln,54.246421,10.442687
01,01057072,Schlesen,54.321543999999996,10.328605
01,01057077,Selent,54.290473,10.425868
01,01057090,Fargau-Pratjau,54.327553,10.396264
01,01057025,Heikendorf,54.371303000000005,10.207125999999999
01,01057051,Mönkeberg,54.34811800000001,10.187105
01,01057074,Schönkirchen,54.33653100000001,10.223696
01,01057005,Belau,54.09754399999999,10.259724
01,01057024,Großharrie,54.119087,10.049861
01,01057068,Rendswühren,54.074276,10.179739999999999
01,01057069,Ruhwinkel,54.094216,10.221822999999999
01,01057071,Schillsdorf,54.116231000000006,10.123873
01,01057080,Stolpe,54.128910999999995,10.222608000000001
01,01057083,Tasdorf,54.095659,10.031296000000001
01,01057085,Wankendorf,54.112811,10.208038
01,01058005,Altenholz,54.402998,10.120656
01,01058034,Büdelsdorf,54.315687,9.677817
01,01058043,Eckernförde,54.472791,9.837036999999999
01,01058092,Kronshagen,54.332198999999996,10.076635000000001
01,01058135,Rendsburg,54.306495,9.663206
01,01058169,Wasbek,54.071419999999996,9.895541
01,01058001,Achterwehr,54.313379000000005,9.965760000000001
01,01058028,Bredenbek,54.324946,9.871053999999999
01,01058050,Felde,54.3016,9.935309
01,01058093,Krummwisch,54.335159,9.897592999999999
01,01058104,Melsdorf,54.317289,10.029817
01,01058126,Ottendorf,54.340275,10.044532
01,01058130,Quarnbek,54.330011999999996,9.983912
01,01058171,Westensee,54.274997,9.897116
01,01058037,Dänischenhagen,54.426044,10.129567
01,01058116,Noer,54.461333999999994,10.005044999999999
01,01058150,Schwedeneck,54.458476,10.069039
01,01058157,Strande,54.440909,10.170978999999999
01,01058051,Felm,54.409603000000004,10.061496
01,01058058,Gettorf,54.407579000000005,9.973683
01,01058096,Lindau,54.385149,9.904583
01,01058110,Neudorf-Bornstein,54.425599,9.934569
01,01058112,Neuwittenbek,54.367895999999995,10.028294
01,01058121,Osdorf,54.42795600000001,10.015654
01,01058142,Schinkel,54.355838,9.954902
01,01058165,Tüttendorf,54.392146,9.993457000000001
01,01058019,Böhnhusen,54.221123,10.068211
01,01058053,Flintbek,54.253235,10.083774
01,01058145,Schönhorst,54.225471,10.104166000000001
01,01058160,Techelsdorf,54.214206999999995,10.047182000000001
01,01058003,Alt Duvenstedt,54.359629000000005,9.645213
01,01058054,Fockbek,54.304425,9.601367999999999
01,01058118,Nübbel,54.272619999999996,9.621871
01,01058136,Rickert,54.333615,9.669085
01,01058010,Bargstall,54.260388,9.46575
01,01058029,Breiholz,54.206137,9.521979
01,01058036,Christiansholm,54.320498,9.405402
01,01058047,Elsdorf-Westermühlen,54.260728,9.517318
01,01058055,Friedrichsgraben,54.272305,9.419087
01,01058056,Friedrichsholm,54.303024,9.427267
01,01058070,Hamdorf,54.225554,9.518657000000001
01,01058078,Hohn,54.29872099999999,9.503416
01,01058089,Königshügel,54.334880000000005,9.474274000000001
01,01058097,Lohe-Föhrden,54.33615,9.522078
01,01058129,Prinzenmoor,54.217427,9.454146000000001
01,01058154,Sophienhamm,54.270233999999995,9.461024
01,01058031,Brinjahe,54.168528,9.632102
01,01058048,Embühren,54.170602,9.591436
01,01058068,Haale,54.17425600000001,9.548925
01,01058071,Hamweddel,54.190502,9.618872999999999
01,01058075,Hörsten,54.226932,9.578749
01,01058086,Jevenstedt,54.234604000000004,9.668849
01,01058101,Luhnstedt,54.167176,9.698753
01,01058148,Schülp b. Rendsburg,54.25931800000001,9.629244
01,01058155,Stafstedt,54.170705000000005,9.66287
01,01058172,Westerrönfeld,54.280365,9.646005
01,01058018,Blumenthal,54.226064,10.003257000000001
01,01058105,Mielkendorf,54.284565,10.040778999999999
01,01058107,Molfsee,54.263397,10.064933
01,01058138,Rodenbek,54.27665699999999,10.01972
01,01058139,Rumohr,54.255177,10.024676
01,01058141,Schierensee,54.256838,9.983332
01,01058011,Bargstedt,54.16243299999999,9.769024
01,01058021,Bokel,54.215588000000004,9.794093
01,01058023,Borgdorf-Seedorf,54.175681999999995,9.890360000000001
01,01058027,Brammer,54.200192,9.765228
01,01058038,Dätgen,54.181105,9.934284
01,01058045,Eisendorf,54.193403,9.869129
01,01058046,Ellerdorf,54.194754,9.838495
01,01058049,Emkendorf,54.262330000000006,9.853171000000001
01,01058059,Gnutz,54.13533,9.823514999999999
01,01058065,Groß Vollstedt,54.234713,9.867712
01,01058091,Krogaspe,54.131572999999996,9.929382
01,01058094,Langwedel,54.211725,9.931599
01,01058117,Nortorf,54.16723,9.855952
01,01058120,Oldenhütten,54.15809599999999,9.740452000000001
01,01058147,Schülp b. Nortorf,54.16364300000001,9.885618
01,01058163,Timmaspe,54.140848999999996,9.890944000000001
01,01058168,Warder,54.213803000000006,9.886711
01,01058026,Bovenau,54.330579,9.829983
01,01058073,Haßmoor,54.292253,9.820925
01,01058122,Ostenfeld (Rendsburg),54.314519999999995,9.785113
01,01058124,Osterrönfeld,54.292151000000004,9.697439
01,01058132,Rade b. Rendsburg,54.331428,9.745224
01,01058140,Schacht-Audorf,54.313528000000005,9.718033
01,01058146,Schülldorf,54.300343999999996,9.729265
01,01058016,Bissee,54.190703000000006,10.110472999999999
01,01058022,Bordesholm,54.175613,10.026065
01,01058033,Brügge,54.174356,10.071067
01,01058063,Grevenkrug,54.212982,10.01044
01,01058064,Groß Buchwald,54.162946999999996,10.085963000000001
01,01058076,Hoffeld,54.188849,9.98061
01,01058098,Loop,54.147998,9.949175
01,01058108,Mühbrook,54.157143000000005,10.010108
01,01058109,Negenharrie,54.14359399999999,10.075273
01,01058133,Reesdorf,54.190474,10.06034
01,01058143,Schmalstede,54.19323000000001,10.030205
01,01058144,Schönbek,54.16273100000001,9.975522
01,01058153,Sören,54.202743999999996,9.998885000000001
01,01058170,Wattenbek,54.171228,10.054689999999999
01,01058008,Ascheffel,54.430870999999996,9.69823
01,01058024,Borgstedt,54.33299,9.710011999999999
01,01058030,Brekendorf,54.42068100000001,9.630366
01,01058035,Bünsdorf,54.369536,9.742569999999999
01,01058039,Damendorf,54.423533,9.735273
01,01058066,Groß Wittensee,54.40460600000001,9.769945
01,01058069,Haby,54.395389,9.822077
01,01058080,Holtsee,54.39873000000001,9.854754
01,01058081,Holzbunge,54.377747,9.705374
01,01058083,Hütten,54.437115000000006,9.717519
01,01058088,Klein Wittensee,54.390390000000004,9.73311
01,01058111,Neu Duvenstedt,54.355476,9.697639
01,01058123,Osterby,54.453261,9.753799
01,01058127,Owschlag,54.391387,9.598839
01,01058152,Sehestedt,54.366001000000004,9.818375
01,01058175,Ahlefeld-Bistensee,54.403923999999996,9.691856
01,01058004,Altenhof,54.43474499999999,9.875233999999999
01,01058012,Barkelsby,54.501518000000004,9.839569000000001
01,01058032,Brodersby,54.634629000000004,9.979854
01,01058040,Damp,54.578215,9.984161
01,01058042,Dörphof,54.614129000000005,9.971894
01,01058052,Fleckeby,54.482319999999994,9.696337
01,01058057,Gammelby,54.500342,9.793238
01,01058067,Güby,54.485952000000005,9.666683
01,01058082,Holzdorf,54.554372,9.896958999999999
01,01058084,Hummelfeld,54.461884,9.718396
01,01058087,Karby,54.62305799999999,9.974822
01,01058090,Kosel,54.505334999999995,9.754483
01,01058099,Loose,54.519594999999995,9.889147999999999
01,01058102,Goosefeld,54.429737,9.815036
01,01058137,Rieseby,54.541709,9.812994999999999
01,01058162,Thumby,54.585574,9.910273
01,01058166,Waabs,54.526748,9.983282
01,01058173,Windeby,54.454793,9.796901
01,01058174,Winnemark,54.615885999999996,9.922134
01,01058007,Arpsdorf,54.039244999999994,9.858986
01,01058009,Aukrug,54.07706700000001,9.792413999999999
01,01058013,Beldorf,54.133279,9.352138
01,01058014,Bendorf,54.087214,9.382283000000001
01,01058015,Beringstedt,54.110562,9.534981
01,01058025,Bornholt,54.101696999999994,9.335478
01,01058044,Ehndorf,54.05327,9.893993
01,01058061,Gokels,54.112001,9.468744000000001
01,01058062,Grauel,54.070198,9.674147
01,01058072,Hanerau-Hademarschen,54.127368999999995,9.412577
01,01058074,Heinkenborstel,54.130804000000005,9.75104
01,01058077,Hohenwestedt,54.09089399999999,9.651582000000001
01,01058085,Jahrsdorf,54.065681999999995,9.631936999999999
01,01058100,Lütjenwestedt,54.140616,9.490806
01,01058103,Meezen,54.05163,9.709777
01,01058106,Mörel,54.113808999999996,9.728528
01,01058113,Nienborstel,54.136911,9.613481
01,01058115,Nindorf,54.131914,9.699683
01,01058119,Oldenbüttel,54.168952000000004,9.452474
01,01058125,Osterstedt,54.111751,9.574606
01,01058128,Padenstedt,54.04894399999999,9.917284
01,01058131,Rade b. Hohenwestedt,54.101217000000005,9.721127000000001
01,01058134,Remmels,54.116583999999996,9.652041
01,01058151,Seefeld,54.101581,9.492849
01,01058156,Steenfeld,54.142655000000005,9.379822
01,01058158,Tackesdorf,54.175661,9.481917999999999
01,01058159,Tappendorf,54.104212,9.693517
01,01058161,Thaden,54.10329399999999,9.422414
01,01058164,Todenbüttel,54.129824,9.555715
01,01058167,Wapelfeld,54.08290699999999,9.604521
01,01059045,Kappeln,54.659144,9.931158
01,01059075,Schleswig,54.514941,9.566657000000001
01,01059113,Glücksburg (Ostsee),54.83685799999999,9.550997
01,01059120,Harrislee,54.80428199999999,9.382916999999999
01,01059183,Handewitt,54.765104,9.324639
01,01059107,Eggebek,54.619737,9.372178
01,01059128,Janneby,54.625601,9.300481
01,01059131,Jerrishoe,54.657215,9.371801
01,01059132,Jörl,54.61018000000001,9.278088
01,01059138,Langstedt,54.616941000000004,9.385397
01,01059162,Sollerup,54.572956999999995,9.320146000000001
01,01059169,Süderhackstedt,54.592318000000006,9.289498
01,01059174,Wanderup,54.68849,9.331464
01,01059012,Borgwedel,54.500271999999995,9.666805
01,01059018,Busdorf,54.493339,9.553156
01,01059019,Dannewerk,54.479726,9.498016
01,01059026,Fahrdorf,54.504653000000005,9.599017
01,01059032,Geltorf,54.46324,9.612616000000001
01,01059043,Jagel,54.457148,9.537499
01,01059056,Lottorf,54.45024,9.57292
01,01059078,Selk,54.468864,9.583539
01,01059101,Tastrup,54.765066000000004,9.477121
01,01059103,Ausacker,54.73908,9.574858
01,01059116,Großsolt,54.699352000000005,9.513444
01,01059126,Hürup,54.748128,9.529425999999999
01,01059127,Husby,54.765195999999996,9.577321000000001
01,01059141,Maasbüll,54.778197,9.522839
01,01059182,Freienwill,54.728589,9.492436
01,01059002,Arnis,54.630563,9.932332
01,01059034,Grödersby,54.637617000000006,9.91842
01,01059067,Oersberg,54.67461899999999,9.842046
01,01059068,Rabenkirchen-Faulück,54.645176,9.862726
01,01059106,Dollerup,54.776063,9.680759
01,01059118,Grundhof,54.773325,9.654546
01,01059137,Langballig,54.79939399999999,9.637034
01,01059145,Munkbrarup,54.8032,9.561132
01,01059157,Ringsberg,54.807139,9.598332000000001
01,01059176,Wees,54.807217,9.52256
01,01059178,Westerholz,54.817328,9.668774
01,01059159,Sieverstedt,54.642784,9.474638
01,01059171,Tarp,54.664106999999994,9.403428
01,01059184,Oeversee,54.702847999999996,9.433082
01,01059076,Schnarup-Thumby,54.648513,9.6497
01,01059161,Sörup,54.717901,9.668561
01,01059185,Mittelangeln,54.683238,9.593828
01,01059105,Böxlund,54.840228,9.180686999999999
01,01059115,Großenwiehe,54.712880000000006,9.252522
01,01059123,Hörup,54.740637,9.103759
01,01059124,Holt,54.810764,9.147231
01,01059129,Jardelund,54.82508000000001,9.201196000000001
01,01059143,Medelby,54.812746999999995,9.172824
01,01059144,Meyn,54.757551,9.223618
01,01059149,Nordhackstedt,54.7334,9.167000999999999
01,01059151,Osterby,54.797444999999996,9.21072
01,01059158,Schafflund,54.759438,9.184281
01,01059173,Wallsbüll,54.774478,9.23803
01,01059177,Weesby,54.829731,9.152975
01,01059179,Lindewitt,54.697924,9.196859
01,01059006,Böel,54.647752000000004,9.72216
01,01059014,Brebel,54.634527,9.736844
01,01059021,Dollrottfeld,54.642499,9.808714
01,01059055,Loit,54.611321999999994,9.699558999999999
01,01059060,Mohrkirch,54.67755,9.706676
01,01059063,Norderbrarup,54.655735,9.768542
01,01059065,Nottfeld,54.618666000000005,9.768634
01,01059070,Rügge,54.689422,9.761241
01,01059072,Saustrup,54.671983,9.772102
01,01059074,Scheggerott,54.667579,9.821294
01,01059080,Steinfeld,54.598383999999996,9.743805
01,01059083,Süderbrarup,54.635615,9.77543
01,01059094,Ulsnis,54.56921,9.747452000000001
01,01059095,Wagersrott,54.665441,9.79451
01,01059187,Boren,54.614506000000006,9.820225
01,01059008,Böklund,54.603487,9.583662
01,01059016,Brodersby,54.538183,9.714558
01,01059033,Goltoft,54.54752,9.72206
01,01059037,Havetoft,54.649421999999994,9.516189
01,01059042,Idstedt,54.582202,9.511808
01,01059049,Klappholz,54.621370999999996,9.539317
01,01059062,Neuberend,54.555268000000005,9.525188
01,01059073,Schaalby,54.549079000000006,9.63988
01,01059081,Stolk,54.598571,9.541623
01,01059082,Struxdorf,54.632416000000006,9.638539999999999
01,01059084,Süderfahrenstedt,54.585386,9.584252000000001
01,01059086,Taarstedt,54.567229000000005,9.688728
01,01059090,Tolk,54.578772,9.639368
01,01059093,Uelsby,54.631280000000004,9.596649000000001
01,01059097,Twedt,54.597882999999996,9.676062
01,01059098,Nübel,54.563867,9.583971
01,01059102,Ahneby,54.701420999999996,9.730965
01,01059109,Esgrus,54.723422,9.782169
01,01059112,Gelting,54.746311999999996,9.89717
01,01059121,Hasselberg,54.715121999999994,9.977352999999999
01,01059136,Kronsgaard,54.732023999999996,9.965003
01,01059142,Maasholm,54.684233,9.990992
01,01059147,Nieby,54.771513,9.936705
01,01059148,Niesgrau,54.744062,9.81269
01,01059152,Pommerby,54.756629000000004,9.937539
01,01059154,Rabel,54.690305,9.949197999999999
01,01059155,Rabenholz,54.722168,9.902241
01,01059163,Stangheck,54.712702,9.860273
01,01059164,Steinberg,54.755993999999994,9.782278999999999
01,01059167,Sterup,54.727837,9.738908
01,01059168,Stoltebüll,54.700688,9.878988
01,01059186,Steinbergkirche,54.7544,9.759969
01,01059010,Bollingstedt,54.592884999999995,9.412302
01,01059023,Ellingstedt,54.47773299999999,9.409623
01,01059039,Hollingstedt,54.455932,9.336606
01,01059041,Hüsby,54.496334999999995,9.484548
01,01059044,Jübek,54.55668000000001,9.394391
01,01059057,Lürschau,54.53863199999999,9.496358
01,01059077,Schuby,54.51517,9.480215
01,01059079,Silberstedt,54.51859399999999,9.370766
01,01059092,Treia,54.518494,9.316618
01,01059001,Alt Bennebek,54.377641000000004,9.431246
01,01059005,Bergenhusen,54.376351,9.316107
01,01059009,Börm,54.4033,9.378249
01,01059020,Dörpstedt,54.434054,9.362474
01,01059024,Erfde,54.308546,9.317127000000001
01,01059035,Groß Rheide,54.441210999999996,9.438091
01,01059050,Klein Bennebek,54.401996999999994,9.456571
01,01059051,Klein Rheide,54.449512,9.476383
01,01059053,Kropp,54.411198999999996,9.508668
01,01059058,Meggerdorf,54.347483,9.39829
01,01059064,Norderstapel,54.360881000000006,9.244945
01,01059085,Süderstapel,54.349368000000005,9.218997
01,01059087,Tetenhusen,54.349121,9.494238000000001
01,01059088,Tielen,54.28564300000001,9.334919000000001
01,01059096,Wohlde,54.404782,9.294744999999999
01,01060004,Bad Bramstedt,53.918792,9.882114999999999
01,01060005,Bad Segeberg,53.937059,10.304193
01,01060019,Ellerau,53.752683,9.917553
01,01060039,Henstedt-Ulzburg,53.783923,9.991924000000001
01,01060044,Kaltenkirchen,53.83825699999999,9.959311
01,01060063,Norderstedt,53.695736,9.983634
01,01060092,Wahlstedt,53.952343000000006,10.214464
01,01060003,Armstedt,53.971225,9.847056
01,01060009,Bimöhlen,53.935914000000004,9.953588
01,01060013,Borstel,53.969545,9.79743
01,01060021,Föhrden-Barl,53.927492,9.787122
01,01060023,Fuhlendorf,53.943215,9.885482000000001
01,01060027,Großenaspe,53.976025,9.966826
01,01060031,Hagen,53.946622,9.826977000000001
01,01060033,Hardebek,53.988376,9.868731
01,01060035,Hasenkrug,53.985063000000004,9.849789
01,01060037,Heidmoor,53.864464,9.819023
01,01060040,Hitzhusen,53.923021999999996,9.85186
01,01060056,Mönkloh,53.888087,9.787844
01,01060095,Weddelbrook,53.904106000000006,9.830237
01,01060099,Wiemersdorf,53.95794,9.904539999999999
01,01060012,Bornhöved,54.068565,10.225454
01,01060017,Damsdorf,54.064498,10.314111
01,01060026,Gönnebek,54.049038,10.177561
01,01060072,Schmalensee,54.08260799999999,10.270750999999999
01,01060080,Stocksee,54.089631000000004,10.343274000000001
01,01060086,Tarbek,54.055964,10.269726
01,01060087,Tensfeld,54.042170999999996,10.320723
01,01060089,Trappenkamp,54.041764,10.22097
01,01060043,Itzstedt,53.806383999999994,10.156532
01,01060046,Kayhude,53.757591000000005,10.134312
01,01060058,Nahe,53.795306999999994,10.134557000000001
01,01060065,Oering,53.825233999999995,10.14788
01,01060076,Seth,53.850390000000004,10.175024
01,01060085,Sülfeld,53.799372,10.231158
01,01060002,Alveslohe,53.78690600000001,9.913813000000001
01,01060034,Hartenholm,53.899992000000005,10.06027
01,01060036,Hasenmoor,53.899913,9.981344
01,01060054,Lentföhrden,53.873197,9.888251
01,01060064,Nützen,53.864688,9.919785000000001
01,01060073,Schmalfeld,53.876899,9.983686
01,01060042,Hüttblek,53.83945,10.071819
01,01060045,Kattendorf,53.843003,10.023721
01,01060047,Kisdorf,53.807677000000005,10.007000999999999
01,01060066,Oersdorf,53.840293,9.994860000000001
01,01060077,Sievershütten,53.841324,10.106221000000001
01,01060082,Struvenhütten,53.865596999999994,10.055588
01,01060084,Stuvenborn,53.851443999999994,10.124938
01,01060094,Wakendorf II,53.780212,10.079879
01,01060100,Winsen,53.830923999999996,10.015364
01,01060007,Bark,53.910575,10.185039999999999
01,01060008,Bebensee,53.875085,10.29855
01,01060022,Fredesdorf,53.875228,10.203463000000001
01,01060029,Groß Niendorf,53.84575699999999,10.245303
01,01060041,Högersdorf,53.920747999999996,10.284353
01,01060051,Kükels,53.894887,10.238914999999999
01,01060053,Leezen,53.865227000000004,10.251739
01,01060057,Mözen,53.911080000000005,10.258094999999999
01,01060062,Neversdorf,53.86476999999999,10.285862
01,01060074,Schwissel,53.895424,10.293633999999999
01,01060088,Todesfelde,53.891939,10.176082000000001
01,01060101,Wittenborn,53.926269,10.223554
01,01060011,Boostedt,54.010323,10.025785
01,01060016,Daldorf,54.017015,10.248643
01,01060028,Groß Kummerfeld,54.051542000000005,10.073673
01,01060038,Heidmühlen,53.97248199999999,10.083729
01,01060052,Latendorf,53.995075,10.063741
01,01060068,Rickling,54.006057999999996,10.164860000000001
01,01060006,Bahrenhof,53.878558999999996,10.379472999999999
01,01060010,Blunk,54.007567,10.315789
01,01060015,Bühnsdorf,53.88694399999999,10.374463
01,01060018,Dreggers,53.885277,10.345728999999999
01,01060020,Fahrenkrug,53.941286,10.257059
01,01060024,Geschendorf,53.921999,10.441563
01,01060025,Glasau,54.05666899999999,10.516777000000001
01,01060030,Groß Rönnau,53.97240600000001,10.311886
01,01060048,Klein Gladebrügge,53.914441000000004,10.317432
01,01060049,Klein Rönnau,53.961927,10.320689
01,01060050,Krems II,53.986501000000004,10.355628
01,01060059,Negernbötel,53.982902,10.248764
01,01060060,Nehms,54.021025,10.352354
01,01060061,Neuengörs,53.89911600000001,10.384085
01,01060067,Pronstorf,53.957692,10.471219999999999
01,01060069,Rohlstorf,53.971759,10.408268
01,01060070,Schackendorf,53.957561,10.270569
01,01060071,Schieren,53.944727,10.390998
01,01060075,Seedorf,54.049901,10.408941
01,01060079,Stipsdorf,53.941826,10.33446
01,01060081,Strukdorf,53.91982900000001,10.485999999999999
01,01060090,Travenhorst,54.019011,10.452703
01,01060091,Traventhal,53.894563,10.317698
01,01060093,Wakendorf I,53.864458,10.357027
01,01060096,Weede,53.922028000000005,10.372489
01,01060097,Wensin,53.980996,10.412545
01,01060098,Westerrade,53.935883999999994,10.45969
01,01061029,Glückstadt,53.788000000000004,9.423755
01,01061046,Itzehoe,53.92521,9.516607
01,01061113,Wilster,53.922543000000005,9.374577
01,01061005,Auufer,53.92473199999999,9.685711999999999
01,01061016,Breitenberg,53.924364000000004,9.634796000000001
01,01061017,Breitenburg,53.904697999999996,9.572386999999999
01,01061053,Kollmoor,53.920974,9.599128
01,01061058,Kronsmoor,53.908361,9.60155
01,01061061,Lägerdorf,53.888647999999996,9.570478999999999
01,01061068,Moordiek,53.913075,9.651163
01,01061072,Münsterdorf,53.903684,9.540644
01,01061079,Oelixdorf,53.926812,9.564791
01,01061109,Westermoor,53.914039,9.626905
01,01061115,Wittenbergen,53.933797999999996,9.680534
01,01061004,Altenmoor,53.764193000000006,9.576880000000001
01,01061012,Blomesche Wildnis,53.805769999999995,9.45082
01,01061015,Borsfleth,53.82555,9.430342999999999
01,01061027,Engelbrechtsche Wildnis,53.78583100000001,9.447339999999999
01,01061037,Herzhorn,53.786218999999996,9.483167
01,01061041,Hohenfelde,53.844593999999994,9.624106
01,01061044,Horst (Holstein),53.810990000000004,9.618468
01,01061050,Kiebitzreihe,53.78240699999999,9.614131
01,01061054,Krempdorf,53.826512,9.461193
01,01061074,Neuendorf b. Elmshorn,53.737582999999994,9.562834
01,01061101,Sommerland,53.803001,9.538264999999999
01,01061118,Kollmar,53.732667000000006,9.494978
01,01061008,Bekdorf,53.938255000000005,9.423362
01,01061010,Bekmünde,53.925343000000005,9.446057000000001
01,01061024,Drage,54.004376,9.51882
01,01061034,Heiligenstedten,53.930251,9.467979
01,01061035,Heiligenstedtenerkamp,53.898674,9.466889
01,01061039,Hodorf,53.904109,9.428529
01,01061040,Hohenaspe,53.98905799999999,9.527581
01,01061045,Huje,53.976997,9.435611999999999
01,01061047,Kaaks,53.99009100000001,9.469405
01,01061052,Kleve,53.965863,9.404044
01,01061059,Krummendiek,53.944241000000005,9.416376
01,01061065,Lohbarbek,53.945443000000004,9.635698
01,01061067,Mehlbek,54.004537,9.434371
01,01061070,Moorhusen,53.96046,9.388353
01,01061082,Oldendorf,53.954336,9.456166
01,01061083,Ottenbüttel,53.972124,9.506342
01,01061084,Peissen,54.024416,9.608692
01,01061098,Schlotfeld,53.95926,9.583146000000001
01,01061100,Silzen,54.029281000000005,9.635016
01,01061114,Winseldorf,53.943474,9.605041
01,01061006,Bahrenfleth,53.868102,9.449548
01,01061022,Dägeling,53.878818,9.531386999999999
01,01061026,Elskop,53.812422,9.493561
01,01061030,Grevenkop,53.84298100000001,9.535983
01,01061055,Krempe,53.837959,9.487441
01,01061056,Kremperheide,53.881515,9.478852999999999
01,01061057,Krempermoor,53.877501,9.480149
01,01061073,Neuenbrook,53.861734,9.532922
01,01061092,Rethwisch,53.866516000000004,9.591714999999999
01,01061104,Süderau,53.821612,9.512541
01,01061001,Aasbüttel,54.067271,9.441789
01,01061003,Agethorst,54.019137,9.436849
01,01061011,Besdorf,54.050222999999995,9.360111999999999
01,01061013,Bokelrehm,54.03761899999999,9.385822000000001
01,01061014,Bokhorst,54.05730500000001,9.400735000000001
01,01061021,Christinenthal,54.050318999999995,9.532356
01,01061031,Gribbohm,54.027149,9.347706
01,01061033,Hadenfeld,54.033196,9.456156
01,01061043,Holstenniendorf,54.041651,9.348113
01,01061048,Kaisborstel,54.017026,9.468977
01,01061066,Looft,54.0287,9.523319
01,01061076,Nienbüttel,54.030539000000005,9.415315
01,01061078,Nutteln,53.990288,9.388823
01,01061081,Oldenborstel,54.062709,9.513297999999999
01,01061085,Pöschendorf,54.03879499999999,9.490449
01,01061087,Puls,54.083808,9.515658
01,01061091,Reher,54.065856000000004,9.573588
01,01061097,Schenefeld,54.046014,9.481183999999999
01,01061105,Vaale,53.999729,9.379707000000002
01,01061106,Vaalermoor,53.978742000000004,9.331482000000001
01,01061107,Wacken,54.020134,9.379255
01,01061108,Warringholz,54.078701,9.462802
01,01061002,Aebtissinwisch,53.970611,9.289861
01,01061007,Beidenfleth,53.879509999999996,9.40975
01,01061018,Brokdorf,53.861281999999996,9.331738
01,01061020,Büttel,53.899717,9.229071000000001
01,01061023,Dammfleth,53.908713,9.373047999999999
01,01061025,Ecklak,53.95312,9.2624
01,01061060,Kudensee,53.930105000000005,9.212866
01,01061062,Landrecht,53.931938,9.387394
01,01061063,Landscheide,53.92201,9.251644
01,01061077,Nortorf,53.926535,9.290542
01,01061095,Sankt Margarethen,53.889309,9.256234
01,01061102,Stördorf,53.917182,9.427764999999999
01,01061110,Wewelsfleth,53.842891,9.399654
01,01061119,Neuendorf-Sachsenbande,53.959764,9.337569
01,01061019,Brokstedt,53.990426,9.821297
01,01061028,Fitzbek,54.002409,9.768919
01,01061036,Hennstedt,54.030506,9.718676
01,01061038,Hingstheide,53.907649,9.753551
01,01061042,Hohenlockstedt,53.964541000000004,9.617875
01,01061049,Kellinghusen,53.949571999999996,9.713967
01,01061064,Lockstedt,54.004045999999995,9.686478
01,01061071,Mühlenbarbek,53.958662,9.668168
01,01061080,Oeschebüttel,53.989028000000005,9.721786999999999
01,01061086,Poyenberg,54.041555,9.691984
01,01061088,Quarnstedt,53.953878,9.784677
01,01061089,Rade,54.000918000000006,9.741760000000001
01,01061093,Rosdorf,53.976935,9.727276
01,01061096,Sarlhusen,54.023134,9.792793
01,01061103,Störkathen,53.979082999999996,9.756877000000001
01,01061111,Wiedenborstel,54.0432,9.76182
01,01061112,Willenscharen,54.010043,9.80818
01,01061116,Wrist,53.930952000000005,9.7507
01,01061117,Wulfsmoor,53.911925,9.724143
01,01062001,Ahrensburg,53.67575,10.239705
01,01062004,Bad Oldesloe,53.810046,10.373196
01,01062006,Bargteheide,53.729889,10.261797999999999
01,01062009,Barsbüttel,53.569015,10.169264
01,01062018,Glinde,53.540087,10.211314
01,01062023,Großhansdorf,53.662546999999996,10.285038
01,01062053,Oststeinbek,53.54223399999999,10.164774000000001
01,01062060,Reinbek,53.509793,10.251748
01,01062061,Reinfeld (Holstein),53.8315,10.488565
01,01062076,Tangstedt,53.732604,10.087763
01,01062090,Ammersbek,53.690234,10.193594000000001
01,01062019,Grabau,53.80403199999999,10.275263
01,01062046,Meddewade,53.810258,10.440757000000001
01,01062050,Neritz,53.7877,10.29064
01,01062056,Pölitz,53.772565,10.381723
01,01062062,Rethwisch,53.772666,10.452622
01,01062065,Rümpel,53.782963,10.351796
01,01062089,Lasbek,53.742148,10.355082000000001
01,01062091,Steinburg,53.705151,10.406436
01,01062092,Travenbrück,53.839316000000004,10.323018
01,01062005,Bargfeld-Stegen,53.766521,10.186613000000001
01,01062014,Delingsdorf,53.706655000000005,10.252309
01,01062016,Elmenhorst,53.764821999999995,10.263214
01,01062027,Hammoor,53.713776,10.322497
01,01062036,Jersbek,53.741287,10.22162
01,01062051,Nienwohld,53.786823999999996,10.193688
01,01062078,Todendorf,53.694968,10.348946
01,01062081,Tremsbüttel,53.742856,10.310209
01,01062003,Badendorf,53.869606000000005,10.583066
01,01062008,Barnitz,53.805978,10.500288000000001
01,01062025,Hamberge,53.838372,10.582459
01,01062031,Heidekamp,53.85430899999999,10.501018
01,01062032,Heilshoop,53.887659,10.530579
01,01062039,Klein Wesenberg,53.811108,10.545461999999999
01,01062048,Mönkhagen,53.901221,10.561679
01,01062059,Rehhorst,53.876681999999995,10.469489
01,01062083,Westerau,53.778819999999996,10.489307
01,01062087,Zarpen,53.870262,10.518179
01,01062093,Feldhorst,53.853235,10.424092
01,01062094,Wesenberg,53.832708999999994,10.533411
01,01062011,Braak,53.610374,10.24468
01,01062035,Hoisdorf,53.660162,10.309948
01,01062069,Siek,53.635029,10.297782000000002
01,01062071,Stapelfeld,53.606584999999995,10.220756
01,01062088,Brunsbek,53.587566,10.275167
01,01062020,Grande,53.58,10.386682
01,01062021,Grönwohld,53.642419999999994,10.408128
01,01062022,Großensee,53.614238,10.34108
01,01062026,Hamfelde,53.60479599999999,10.449254
01,01062033,Hohenfelde,53.630906,10.474272000000001
01,01062040,Köthel,53.609469999999995,10.507479
01,01062045,Lütjensee,53.648967000000006,10.364742
01,01062058,Rausdorf,53.589038,10.330585000000001
01,01062082,Trittau,53.61413100000001,10.402566
01,01062086,Witzhave,53.567779,10.337867
02,02000000,Hamburg,53.550678000000005,9.99697
03,03101000,Braunschweig,52.26249,10.520525
03,03102000,Salzgitter,52.127087,10.370054
03,03103000,Wolfsburg,52.421938,10.784975
03,03151009,Gifhorn,52.482156999999994,10.544763
03,03151025,Sassenburg,52.52859399999999,10.615555
03,03151040,Wittingen,52.72877,10.740212
03,03151002,Barwedel,52.522997,10.777346000000001
03,03151004,Bokensdorf,52.500209,10.716038000000001
03,03151014,Jembke,52.497889,10.761218
03,03151020,Osloß,52.469387,10.680136
03,03151030,Tappenbeck,52.47459,10.74338
03,03151039,Weyhausen,52.463114000000004,10.715933
03,03151003,Bergfeld,52.546012,10.845842999999999
03,03151005,Brome,52.601479000000005,10.942136999999999
03,03151008,Ehra-Lessien,52.56811,10.770763
03,03151021,Parsau,52.536258999999994,10.891588
03,03151024,Rühen,52.485839,10.885271000000001
03,03151031,Tiddische,52.51674499999999,10.80446
03,03151032,Tülau,52.577302,10.877466
03,03151007,Dedelstorf,52.701001,10.504885
03,03151011,Hankensbüttel,52.730863,10.603682000000001
03,03151019,Obernholz,52.761286,10.608925
03,03151028,Sprakensehl,52.767053000000004,10.494114999999999
03,03151029,Steinhorst,52.689985,10.404833
03,03151006,Calberlah,52.421337,10.623002
03,03151013,Isenbüttel,52.435125,10.578471
03,03151022,Ribbesbüttel,52.434224,10.506401
03,03151037,Wasbüttel,52.413252,10.592713
03,03151012,Hillerse,52.413097,10.404067
03,03151015,Leiferde,52.437813,10.43621
03,03151017,Meinersen,52.475153000000006,10.362138
03,03151018,Müden (Aller),52.52559399999999,10.362484
03,03151001,Adenbüttel,52.379328,10.450974
03,03151016,Meine,52.381857000000004,10.545222
03,03151023,Rötgesbüttel,52.415253,10.532239
03,03151027,Schwülper,52.346961,10.450892
03,03151034,Vordorf,52.368373,10.522861
03,03151041,Didderse,52.381017,10.402871000000001
03,03151010,Groß Oesingen,52.648088,10.462138000000001
03,03151026,Schönewörde,52.63310799999999,10.62824
03,03151033,Ummern,52.591083,10.432493
03,03151035,Wagenhoff,52.551739000000005,10.523958
03,03151036,Wahrenholz,52.615669,10.603296
03,03151038,Wesendorf,52.592921999999994,10.534582
03,03152001,Adelebsen,51.580221,9.756785
03,03152004,Bovenden,51.586928,9.923325
03,03152007,Duderstadt,51.512440000000005,10.257176
03,03152009,Friedland,51.419791,9.913521000000001
03,03152011,Gleichen,51.469787,10.054922999999999
03,03152012,Göttingen,51.533027000000004,9.935139999999999
03,03152016,Hann. Münden,51.415826,9.654832
03,03152021,Rosdorf,51.506056,9.896257
03,03152026,Staufenberg,51.353644,9.620844
03,03152005,Bühren,51.484852000000004,9.677991
03,03152006,Dransfeld,51.5023,9.76266
03,03152013,Jühnde,51.463704,9.801203999999998
03,03152017,Niemetal,51.515519,9.7144
03,03152023,Scheden,51.454935,9.733783
03,03152002,Bilshausen,51.630495,10.158692
03,03152003,Bodensee,51.604298,10.1319
03,03152010,Gieboldehausen,51.610816,10.214772
03,03152014,Krebeck,51.587922,10.122558
03,03152018,Obernfeld,51.555772999999995,10.232924
03,03152019,Rhumspringe,51.582411,10.295743
03,03152020,Rollshausen,51.569563,10.216588
03,03152022,Rüdershausen,51.581182,10.268239999999999
03,03152028,Wollbrandshausen,51.586754,10.161617999999999
03,03152029,Wollershausen,51.595751,10.256885
03,03152008,Ebergötzen,51.570615999999994,10.101579
03,03152015,Landolfshausen,51.539947,10.104399
03,03152024,Seeburg,51.565172,10.149291
03,03152025,Seulingen,51.543758000000004,10.160867999999999
03,03152027,Waake,51.555296000000006,10.056425
03,03153002,Bad Harzburg,51.880275,10.560048
03,03153007,Langelsheim,51.938286,10.335897000000001
03,03153008,Liebenburg,52.020145,10.432161
03,03153012,Seesen,51.890957,10.176074
03,03153016,Braunlage,51.728021999999996,10.610704
03,03153017,Goslar,51.906411999999996,10.428975
03,03153018,Clausthal-Zellerfeld,51.803754999999995,10.333188999999999
03,03153006,Hahausen,51.948362,10.218368
03,03153009,Lutter am Barenberge,51.983968,10.259361
03,03153014,Wallmoden,52.019418,10.292667
03,03154003,Büddenstedt,52.163289,11.026715
03,03154010,Helmstedt,52.227571000000005,11.010462
03,03154013,Königslutter am Elm,52.252361,10.81673
03,03154014,Lehre,52.33102,10.670817999999999
03,03154019,Schöningen,52.141775,10.967701
03,03154008,Grasleben,52.306135999999995,11.013922
03,03154015,Mariental,52.277065,10.98211
03,03154016,Querenhorst,52.336909000000006,10.961857
03,03154018,Rennau,52.296009000000005,10.911285000000001
03,03154002,Beierstedt,52.073819,10.858806
03,03154006,Gevensleben,52.077261,10.822148
03,03154011,Ingeleben,52.107912,10.872618
03,03154012,Jerxheim,52.083443,10.898594000000001
03,03154020,Söllingen,52.092375,10.924725
03,03154023,Twieflingen,52.124961,10.917651
03,03154005,Frellstedt,52.206399,10.914392
03,03154017,Räbke,52.194672,10.87847
03,03154021,Süpplingen,52.227235,10.905049
03,03154022,Süpplingenburg,52.250906,10.908207
03,03154025,Warberg,52.182049,10.920110000000001
03,03154026,Wolsdorf,52.190661,10.941513
03,03154001,Bahrdorf,52.387634000000006,11.004182
03,03154004,Danndorf,52.424783000000005,10.912017
03,03154007,Grafhorst,52.444849,10.945085
03,03154009,Groß Twülpstedt,52.373469,10.919913000000001
03,03154024,Velpke,52.408394,10.934106
03,03155001,Bad Gandersheim,51.870567,10.024463
03,03155002,Bodenfelde,51.639951,9.553109
03,03155003,Dassel,51.802058,9.687145
03,03155005,Hardegsen,51.650579,9.829689
03,03155006,Kalefeld,51.795915,10.034411
03,03155007,Katlenburg-Lindau,51.668293,10.108034
03,03155009,Moringen,51.697192,9.871075
03,03155010,Nörten-Hardenberg,51.625491,9.935241
03,03155011,Northeim,51.705681,10.000406
03,03155012,Uslar,51.660911999999996,9.635000999999999
03,03155013,Einbeck,51.816626,9.866060000000001
03,03156002,Bad Lauterberg im Harz,51.626737,10.46544
03,03156003,Bad Sachsa,51.594452000000004,10.552027
03,03156009,Herzberg am Harz,51.65664,10.340023
03,03156011,Osterode am Harz,51.728407000000004,10.248155
03,03156017,Bad Grund (Harz),51.809877,10.236863
03,03156006,Elbingerode,51.659428000000005,10.275669
03,03156008,Hattorf am Harz,51.651267,10.235606
03,03156010,Hörden am Harz,51.668715,10.287111
03,03156015,Wulften am Harz,51.662753,10.176938999999999
03,03156012,Walkenried,51.584457,10.615065
03,03156013,Wieda,51.632622,10.585571
03,03156016,Zorge,51.637471000000005,10.633791
03,03157001,Edemissen,52.38746,10.263529
03,03157002,Hohenhameln,52.258403,10.062749
03,03157005,Lengede,52.204873,10.306207
03,03157006,Peine,52.321764,10.227076
03,03157007,Vechelde,52.260798,10.373038000000001
03,03157008,Wendeburg,52.326392999999996,10.385712
03,03157009,Ilsede,52.263896,10.221491
03,03158006,Cremlingen,52.248443,10.65512
03,03158037,Wolfenbüttel,52.164584999999995,10.540383
03,03158039,Schladen-Werla,52.036753000000004,10.561486
03,03158002,Baddeckenstedt,52.083942,10.231519
03,03158004,Burgdorf,52.146029999999996,10.219000999999999
03,03158011,Elbe,52.096734000000005,10.266478
03,03158016,Haverlah,52.052341999999996,10.328567999999999
03,03158018,Heere,52.062397,10.234492
03,03158028,Sehlde,52.038745,10.262343
03,03158005,Cramme,52.113068,10.445960000000001
03,03158010,Dorstadt,52.094949,10.561876
03,03158014,Flöthe,52.075022,10.47625
03,03158019,Heiningen,52.071009000000004,10.554399
03,03158023,Ohrum,52.119288,10.563531
03,03158038,Börßum,52.069203,10.582434
03,03158009,Dettum,52.173041999999995,10.669944000000001
03,03158012,Erkerode,52.203267,10.707678999999999
03,03158013,Evessen,52.188334000000005,10.71125
03,03158030,Sickte,52.204544,10.639086
03,03158033,Veltheim (Ohe),52.218112,10.682838
03,03158007,Dahlum,52.145427000000005,10.861435
03,03158008,Denkte,52.137343,10.608957
03,03158017,Hedeper,52.066396999999995,10.680154
03,03158021,Kissenbrück,52.108086,10.59517
03,03158022,Kneitlingen,52.174777,10.760789
03,03158024,Remlingen,52.112657,10.673705
03,03158025,Roklum,52.065366,10.739548
03,03158027,Schöppenstedt,52.144545,10.77471
03,03158029,Semmenstedt,52.093545,10.696296
03,03158031,Uehrde,52.10011,10.766094
03,03158032,Vahlberg,52.130534999999995,10.714286999999999
03,03158035,Winnigstedt,52.065284999999996,10.765292
03,03158036,Wittmar,52.131201000000004,10.640957
03,03241001,Hannover,52.374551000000004,9.738083999999999
03,03241002,Barsinghausen,52.301868,9.465003999999999
03,03241003,Burgdorf,52.446597,10.008214
03,03241004,Burgwedel,52.519898,9.87508
03,03241005,Garbsen,52.416278000000005,9.586889999999999
03,03241006,Gehrden,52.315068,9.59892
03,03241007,Hemmingen,52.32069,9.747743
03,03241008,Isernhagen,52.454877,9.845386
03,03241009,Laatzen,52.314795000000004,9.788174
03,03241010,Langenhagen,52.438469,9.734278
03,03241011,Lehrte,52.372615,9.976958
03,03241012,Neustadt am Rübenberge,52.504751,9.457529
03,03241013,Pattensen,52.26395,9.761472
03,03241014,Ronnenberg,52.319008000000004,9.653235
03,03241015,Seelze,52.396951,9.589383999999999
03,03241016,Sehnde,52.310452000000005,9.967172999999999
03,03241017,Springe,52.208899,9.554961
03,03241018,Uetze,52.463947,10.202538
03,03241019,Wedemark,52.543486,9.712335000000001
03,03241020,Wennigsen (Deister),52.274405,9.574146
03,03241021,Wunstorf,52.425436,9.424195
03,03251007,Bassum,52.847956999999994,8.725552
03,03251012,Diepholz,52.606393000000004,8.370605
03,03251037,Stuhr,53.028414,8.750247
03,03251040,Sulingen,52.682116,8.801224000000001
03,03251041,Syke,52.914547999999996,8.816336
03,03251042,Twistringen,52.799962,8.63877
03,03251044,Wagenfeld,52.546265000000005,8.590374
03,03251047,Weyhe,52.990888,8.840881
03,03251009,Brockum,52.46665,8.41884
03,03251020,Hüde,52.49539,8.356987
03,03251022,Lembruch,52.526785,8.366446
03,03251023,Lemförde,52.46750600000001,8.37707
03,03251025,Marl,52.484483,8.364875999999999
03,03251029,Quernheim,52.461704000000005,8.391985
03,03251036,Stemshorn,52.452090000000005,8.362587
03,03251005,Barnstorf,52.709509999999995,8.505122
03,03251013,Drebber,52.660138,8.425116000000001
03,03251014,Drentwede,52.743443000000006,8.573205
03,03251017,Eydelstedt,52.691527,8.548216
03,03251002,Asendorf,52.769261,9.006295
03,03251026,Martfeld,52.875786,9.067936
03,03251033,Schwarme,52.89935,9.018059
03,03251039,Süstedt,52.861031000000004,8.922148
03,03251048,Bruchhausen-Vilsen,52.824514,9.000448
03,03251003,Bahrenborstel,52.57221,8.815121000000001
03,03251004,Barenburg,52.621324,8.798729
03,03251018,Freistatt,52.623062,8.648938000000001
03,03251021,Kirchdorf,52.594752,8.836015
03,03251043,Varrel,52.621233,8.730967999999999
03,03251045,Wehrbleck,52.628854000000004,8.692263
03,03251006,Barver,52.620672,8.593598
03,03251011,Dickel,52.64455400000001,8.472542
03,03251019,Hemsloh,52.601629,8.509428
03,03251030,Rehden,52.609902000000005,8.482683
03,03251046,Wetschen,52.612632999999995,8.446206
03,03251001,Affinghausen,52.782963,8.87991
03,03251015,Ehrenburg,52.747727000000005,8.70452
03,03251028,Neuenkirchen,52.774506,8.748393
03,03251031,Scholen,52.740308,8.769239
03,03251032,Schwaförden,52.73778299999999,8.818783
03,03251038,Sudwalde,52.796913,8.842769
03,03251008,Borstel,52.669312,8.971999
03,03251024,Maasen,52.692321,8.885683
03,03251027,Mellinghausen,52.707432999999995,8.897383999999999
03,03251034,Siedenburg,52.692898,8.940684
03,03251035,Staffhorst,52.721512,8.980126
03,03252001,Aerzen,52.046638,9.261633
03,03252002,Bad Münder am Deister,52.197773,9.463755
03,03252003,Bad Pyrmont,51.985504,9.262908
03,03252004,Coppenbrügge,52.117614,9.550116000000001
03,03252005,Emmerthal,52.033367,9.378681
03,03252006,Hameln,52.104402,9.356316
03,03252007,Hessisch Oldendorf,52.168347,9.252506
03,03252008,Salzhemmendorf,52.066164,9.590419
03,03254002,Alfeld (Leine),51.98641,9.823056
03,03254003,Algermissen,52.253687,9.970613
03,03254005,Bad Salzdetfurth,52.063403,10.007627000000001
03,03254008,Bockenem,52.009625,10.128926
03,03254011,Diekholzen,52.094590000000004,9.918044
03,03254014,Elze,52.121655,9.735897
03,03254017,Giesen,52.195149,9.892277
03,03254020,Harsum,52.21046,9.964458
03,03254021,Hildesheim,52.155018,9.948634
03,03254022,Holle,52.087421,10.160127000000001
03,03254026,Nordstemmen,52.160076000000004,9.782956
03,03254028,Sarstedt,52.234449,9.855848
03,03254029,Schellerten,52.187719,10.10173
03,03254032,Söhlde,52.189448999999996,10.232297
03,03254015,Everode,51.950179,9.913953999999999
03,03254016,Freden (Leine),51.928153,9.893139999999999
03,03254024,Landwehr,51.916553,9.961388000000001
03,03254034,Winzenburg,51.936392,9.938814
03,03254006,Banteln,52.069638,9.75175
03,03254007,Betheln,52.11115,9.793052000000001
03,03254009,Brüggen,52.041414,9.777042999999999
03,03254010,Despetal,52.086512,9.841695
03,03254013,Eime,52.077171,9.724253
03,03254018,Gronau (Leine),52.086689,9.786483
03,03254027,Rheden,52.058978,9.788408
03,03254019,Harbarnsen,51.991433,9.959091
03,03254023,Lamspringe,51.957723,10.008627
03,03254025,Neuhof,51.980856,10.032544
03,03254030,Sehlem,52.011515,9.975013
03,03254035,Woltershausen,51.973766999999995,9.959938000000001
03,03254001,Adenstedt,51.99783,9.93498
03,03254004,Almstedt,52.03317,9.957582
03,03254012,Eberholzen,52.053646,9.850241
03,03254031,Sibbesse,52.054728999999995,9.902564
03,03254033,Westfeld,52.042196000000004,9.911029
03,03254036,Coppengrave,51.988816,9.723869
03,03254037,Duingen,52.005815999999996,9.699208
03,03254038,Hoyershausen,52.018347999999996,9.7535
03,03254039,Marienhagen,52.034143,9.685902
03,03254040,Weenzen,52.018415000000005,9.669811
03,03255008,Delligsen,51.942963,9.798914
03,03255023,Holzminden,51.830618,9.449537
03,03255002,Bevern,51.857475,9.494465
03,03255015,Golmbach,51.900375,9.545419
03,03255021,Holenberg,51.909735,9.584829
03,03255030,Negenborn,51.890628,9.567476
03,03255004,Boffzen,51.750399,9.398506
03,03255009,Derental,51.694959000000004,9.429724
03,03255014,Fürstenberg,51.731487,9.399382000000001
03,03255026,Lauenförde,51.660524,9.386536999999999
03,03255003,Bodenwerder,51.975913,9.512192
03,03255005,Brevörde,51.912231,9.427185
03,03255016,Halle,51.991248,9.563019
03,03255017,Hehlen,51.984688,9.470187
03,03255019,Heinsen,51.883855,9.434358
03,03255020,Heyen,52.008111,9.504859
03,03255025,Kirchbrak,51.965529,9.57338
03,03255031,Ottenstein,51.946484999999996,9.408921000000001
03,03255032,Pegestorf,51.926997,9.497627
03,03255033,Polle,51.898705,9.406883
03,03255035,Vahlbruch,51.920738,9.341405
03,03255001,Arholzen,51.866505,9.569322
03,03255007,Deensen,51.862702,9.590468
03,03255010,Dielmissen,51.971154999999996,9.607235000000001
03,03255012,Eimen,51.876026,9.777941
03,03255013,Eschershausen,51.929678,9.633947000000001
03,03255018,Heinade,51.839233,9.632864
03,03255022,Holzen,51.933805,9.666364999999999
03,03255027,Lenne,51.894735,9.683031
03,03255028,Lüerdissen,51.951167,9.626242999999999
03,03255034,Stadtoldendorf,51.882484000000005,9.622765
03,03255036,Wangelnstedt,51.87064,9.687795
03,03256022,Nienburg (Weser),52.640859,9.211648
03,03256025,Rehburg-Loccum,52.463601000000004,9.203984
03,03256030,Steyerberg,52.56739,9.026193
03,03256005,Drakenburg,52.687369999999994,9.210548
03,03256011,Haßbergen,52.73085,9.230031
03,03256012,Heemsen,52.704418999999994,9.262984
03,03256027,Rohrsen,52.709796,9.232437
03,03256002,Binnen,52.618382,9.135239
03,03256019,Liebenau,52.603837,9.095856
03,03256023,Pennigsehl,52.64238100000001,9.026812
03,03256001,Balge,52.718244999999996,9.184785
03,03256021,Marklohe,52.66863299999999,9.156531
03,03256036,Wietzen,52.713048,9.084499000000001
03,03256020,Linsburg,52.593546999999994,9.303647
03,03256026,Rodewald,52.662673,9.482895
03,03256029,Steimbke,52.655465,9.390322
03,03256031,Stöckse,52.64113100000001,9.341552
03,03256004,Diepenau,52.421591,8.732764
03,03256024,Raddestorf,52.455222,8.961702
03,03256033,Uchte,52.499407999999995,8.907246
03,03256034,Warmsen,52.456444,8.848914
03,03256003,Bücken,52.78005400000001,9.134546
03,03256007,Eystrup,52.779255000000006,9.212755
03,03256008,Gandesbergen,52.760767,9.223028
03,03256009,Hämelhausen,52.780784,9.277964
03,03256010,Hassel (Weser),52.802471,9.205763000000001
03,03256013,Hilgermissen,52.844913,9.149399
03,03256014,Hoya,52.80585500000001,9.135517
03,03256015,Hoyerhagen,52.829149,9.08566
03,03256028,Schweringen,52.74753199999999,9.181245
03,03256035,Warpe,52.740807999999994,9.104535
03,03256006,Estorf,52.588451,9.141689
03,03256016,Husum,52.565208,9.252157
03,03256017,Landesbergen,52.55829,9.119921000000001
03,03256018,Leese,52.505729,9.11604
03,03256032,Stolzenau,52.516507,9.06701
03,03257003,Auetal,52.240338,9.238764999999999
03,03257009,Bückeburg,52.260372,9.050444
03,03257028,Obernkirchen,52.270718,9.130875999999999
03,03257031,Rinteln,52.186989000000004,9.079841
03,03257035,Stadthagen,52.323705,9.205815
03,03257001,Ahnsen,52.254661,9.101227
03,03257005,Bad Eilsen,52.240368,9.105963000000001
03,03257008,Buchholz,52.224812,9.118924
03,03257012,Heeßen,52.23215,9.105587
03,03257022,Luhden,52.226166,9.092353999999998
03,03257007,Beckedorf,52.342837,9.31373
03,03257015,Heuerßen,52.329615000000004,9.277037
03,03257020,Lindhorst,52.358059000000004,9.284344
03,03257021,Lüdersfeld,52.358924,9.252911
03,03257006,Bad Nenndorf,52.339433,9.374996000000001
03,03257011,Haste,52.381033,9.39349
03,03257016,Hohnhorst,52.368567,9.371285
03,03257036,Suthfeld,52.366184000000004,9.397411
03,03257019,Lauenhagen,52.356164,9.208019
03,03257023,Meerbeck,52.342315,9.14462
03,03257025,Niedernwöhren,52.352037,9.147706
03,03257027,Nordsehl,52.357575,9.18224
03,03257030,Pollhagen,52.383784000000006,9.18941
03,03257037,Wiedensahl,52.383095000000004,9.1198
03,03257013,Helpsen,52.311690999999996,9.115865
03,03257014,Hespe,52.331976,9.112803999999999
03,03257026,Nienstädt,52.292916999999996,9.165807000000001
03,03257034,Seggebruch,52.301545000000004,9.095061999999999
03,03257002,Apelern,52.289576000000004,9.336445
03,03257017,Hülsede,52.25013,9.361410000000001
03,03257018,Lauenau,52.274093,9.368136
03,03257024,Messenkamp,52.260048,9.380084
03,03257029,Pohle,52.265412,9.341642
03,03257032,Rodenberg,52.311819,9.352175
03,03257004,Auhagen,52.398326000000004,9.294945
03,03257010,Hagenburg,52.433538,9.326684
03,03257033,Sachsenhagen,52.395790000000005,9.264813
03,03257038,Wölpinghausen,52.419109999999996,9.237707
03,03351004,Bergen,52.809523,9.962303
03,03351006,Celle,52.626307,10.08067
03,03351010,Faßberg,52.895917000000004,10.162006
03,03351012,Hambühren,52.635569,9.983253999999999
03,03351023,Wietze,52.65416999999999,9.838315
03,03351024,Winsen (Aller),52.679316,9.90864
03,03351025,Eschede,52.733782999999995,10.235106
03,03351026,Südheide,53.624828,8.841305
03,03351005,Bröckel,52.518414,10.216108
03,03351007,Eicklingen,52.550543999999995,10.180086
03,03351017,Langlingen,52.555379,10.289155000000001
03,03351022,Wienhausen,52.57957,10.186005
03,03351002,Ahnsbeck,52.611286,10.2848
03,03351003,Beedenbostel,52.644316,10.257174000000001
03,03351008,Eldingen,52.686114,10.340328
03,03351015,Hohne,52.588533999999996,10.371589
03,03351016,Lachendorf,52.62209,10.245238
03,03351001,Adelheidsdorf,52.565363,10.059931
03,03351018,Nienhagen,52.556183,10.104402
03,03351021,Wathlingen,52.539115,10.157425
03,03351501,Lohheide,52.80933,9.933
03,03352011,Cuxhaven,53.864463,8.69747
03,03352032,Loxstedt,53.470254000000004,8.64907
03,03352050,Schiffdorf,53.531085,8.652806
03,03352059,Beverstedt,53.434238,8.819169
03,03352060,Hagen im Bremischen,53.355945999999996,8.644053
03,03352061,Wurster Nordseeküste,53.688724,8.8677
03,03352062,Geestland,53.608072,8.594252000000001
03,03352004,Belum,53.816223,8.994205000000001
03,03352008,Bülkau,53.747225,8.979034
03,03352009,Cadenberge,53.771739000000004,9.056553
03,03352018,Geversdorf,53.795798,9.078763
03,03352039,Neuhaus (Oste),53.802218999999994,9.036629
03,03352042,Oberndorf,53.75196700000001,9.145491999999999
03,03352056,Wingst,53.72229,9.039473
03,03352002,Armstorf,53.597506,9.073936999999999
03,03352024,Hollnseth,53.578632999999996,9.097491
03,03352029,Lamstedt,53.636306999999995,9.096336
03,03352036,Mittelstenahe,53.651216000000005,9.038164
03,03352052,Stinstedt,53.66020699999999,8.973002000000001
03,03352020,Hechthausen,53.641149,9.237924000000001
03,03352022,Hemmoor,53.690169999999995,9.135186000000001
03,03352044,Osten,53.694162,9.188183
03,03352025,Ihlienworth,53.74069,8.916417
03,03352038,Neuenkirchen,53.777145,8.893852
03,03352041,Nordleda,53.763622,8.834004
03,03352043,Odisheim,53.694134,8.940683
03,03352045,Osterbruch,53.778337,8.941582
03,03352046,Otterndorf,53.807965,8.900001
03,03352051,Steinau,53.678118000000005,8.877152
03,03352055,Wanna,53.740531000000004,8.799188000000001
03,03353005,Buchholz in der Nordheide,53.329257,9.881469000000001
03,03353026,Neu Wulmstorf,53.462891000000006,9.795589999999999
03,03353029,Rosengarten,53.39825,9.881436
03,03353031,Seevetal,53.377706999999994,10.034869
03,03353032,Stelle,53.379578,10.110327
03,03353040,Winsen (Luhe),53.362425,10.209159
03,03353007,Drage,53.409808999999996,10.260961
03,03353023,Marschacht,53.405538,10.375432
03,03353033,Tespe,53.402191,10.411397000000001
03,03353002,Asendorf,53.289989,9.979301
03,03353004,Brackel,53.296893999999995,10.040638000000001
03,03353009,Egestorf,53.194753000000006,10.063314
03,03353016,Hanstedt,53.258027,10.014498
03,03353024,Marxen,53.311431000000006,10.009257
03,03353036,Undeloh,53.19742900000001,9.975782
03,03353001,Appel,53.390684,9.744968
03,03353008,Drestedt,53.327674,9.773823
03,03353014,Halvesbostel,53.359409,9.600987
03,03353019,Hollenstedt,53.36716800000001,9.715423
03,03353025,Moisburg,53.40494,9.702446
03,03353028,Regesbostel,53.37851800000001,9.645208
03,03353039,Wenzendorf,53.348011,9.773247
03,03353003,Bendestorf,53.339859,9.965791000000001
03,03353017,Harmstorf,53.348172999999996,9.987203
03,03353020,Jesteburg,53.306429,9.952786999999999
03,03353010,Eyendorf,53.202349,10.153673
03,03353011,Garlstorf,53.236989,10.102673
03,03353012,Garstedt,53.285914,10.160485000000001
03,03353013,Gödenstorf,53.228515,10.123465
03,03353030,Salzhausen,53.225825,10.169305
03,03353034,Toppenstedt,53.263436,10.10933
03,03353037,Vierhöfen,53.261044999999996,10.221535000000001
03,03353042,Wulfsen,53.300051,10.144323
03,03353006,Dohren,53.30530600000001,9.70182
03,03353015,Handeloh,53.244817000000005,9.833344
03,03353018,Heidenau,53.31436,9.652667
03,03353021,Kakenstorf,53.30721,9.766204
03,03353022,Königsmoor,53.232096999999996,9.639963
03,03353027,Otter,53.240562,9.743028
03,03353035,Tostedt,53.28106,9.712322
03,03353038,Welle,53.240407,9.801616000000001
03,03353041,Wistedt,53.27039499999999,9.681416
03,03354005,Gartow,53.025397999999996,11.461486
03,03354007,Gorleben,53.048304,11.356745
03,03354010,Höhbeck,53.062957,11.430528
03,03354020,Prezelle,52.963602,11.400884
03,03354021,Schnackenburg,53.037209,11.566732
03,03354003,Damnatz,53.136244,11.175827
03,03354004,Dannenberg (Elbe),53.096495999999995,11.090108
03,03354006,Göhrde,53.126479,10.941018
03,03354008,Gusborn,53.078837,11.202897
03,03354009,Hitzacker (Elbe),53.148959999999995,11.036906
03,03354011,Jameln,53.040209999999995,11.075472
03,03354012,Karwitz,53.087565000000005,11.015675
03,03354014,Langendorf,53.102229,11.253903999999999
03,03354019,Neu Darchau,53.227889000000005,10.884199
03,03354027,Zernien,53.067603000000005,10.88551
03,03354001,Bergen an der Dumme,52.890829000000004,10.956207000000001
03,03354002,Clenze,52.936751,10.954386999999999
03,03354013,Küsten,52.976889,11.064805999999999
03,03354015,Lemgow,52.915565,11.312539
03,03354016,Luckau (Wendland),52.927845999999995,11.04936
03,03354017,Lübbow,52.909636,11.181467999999999
03,03354018,Lüchow (Wendland),52.967743000000006,11.161706
03,03354022,Schnega,52.890333999999996,10.892014999999999
03,03354023,Trebel,52.995463,11.318234
03,03354024,Waddeweitz,52.995923,10.959612
03,03354025,Woltersdorf,52.953664,11.22332
03,03354026,Wustrow (Wendland),52.92405600000001,11.119401
03,03355001,Adendorf,53.28781800000001,10.443754
03,03355009,Bleckede,53.291349,10.732726
03,03355022,Lüneburg,53.249157,10.408793
03,03355049,Amt Neuhaus,53.269874,10.936349
03,03355002,Amelinghausen,53.130343,10.21774
03,03355008,Betzendorf,53.137255,10.311162
03,03355027,Oldendorf (Luhe),53.156905,10.213907
03,03355029,Rehlingen,53.106401,10.220028999999998
03,03355034,Soderstorf,53.141222,10.146228
03,03355004,Bardowick,53.292328000000005,10.388067
03,03355007,Barum,53.351293999999996,10.408796
03,03355017,Handorf,53.345038,10.344936
03,03355023,Mechtersen,53.280228,10.31886
03,03355028,Radbruch,53.31075799999999,10.284129
03,03355039,Vögelsen,53.277899,10.35108
03,03355042,Wittorf,53.331506000000005,10.380266
03,03355010,Boitze,53.148663,10.748691
03,03355012,Dahlem,53.203262,10.74816
03,03355013,Dahlenburg,53.18838100000001,10.736987
03,03355025,Nahrendorf,53.174184,10.814465
03,03355037,Tosterglope,53.208523,10.820459
03,03355020,Kirchgellersen,53.230268,10.293225999999999
03,03355031,Reppenstedt,53.247865000000004,10.354493
03,03355035,Südergellersen,53.20854,10.296816
03,03355041,Westergellersen,53.235671999999994,10.24207
03,03355006,Barnstedt,53.135825,10.37247
03,03355014,Deutsch Evern,53.20264399999999,10.438848
03,03355016,Embsen,53.175557,10.344803
03,03355024,Melbeck,53.178585999999996,10.403227000000001
03,03355005,Barendorf,53.228804000000004,10.521495
03,03355026,Neetze,53.26555,10.624248
03,03355030,Reinstorf,53.234322,10.572521
03,03355036,Thomasburg,53.232110999999996,10.657813
03,03355038,Vastorf,53.197671,10.545982
03,03355040,Wendisch Evern,53.215563,10.471354
03,03355003,Artlenburg,53.37286999999999,10.486158999999999
03,03355011,Brietlingen,53.332246,10.447600999999999
03,03355015,Echem,53.33825699999999,10.530693
03,03355018,Hittbergen,53.344572,10.59062
03,03355019,Hohnstorf (Elbe),53.365967000000005,10.551267
03,03355021,Lüdersburg,53.32065,10.573799000000001
03,03355032,Rullstorf,53.28615500000001,10.530491
03,03355033,Scharnebeck,53.293367,10.507995
03,03356002,Grasberg,53.18053100000001,8.983753
03,03356005,Lilienthal,53.14129200000001,8.90772
03,03356007,Osterholz-Scharmbeck,53.230402000000005,8.782826
03,03356008,Ritterhude,53.183333,8.756682000000001
03,03356009,Schwanewede,53.225336,8.594113
03,03356011,Worpswede,53.222854000000005,8.925015
03,03356001,Axstedt,53.35533,8.77323
03,03356003,Hambergen,53.310352,8.826315
03,03356004,Holste,53.373557999999996,8.857626
03,03356006,Lübberstedt,53.334956000000005,8.808542999999998
03,03356010,Vollersode,53.327712,8.914444999999999
03,03357008,Bremervörde,53.48510600000001,9.146245
03,03357016,Gnarrenburg,53.3823,9.002998
03,03357039,Rotenburg (Wümme),53.111546,9.409408
03,03357041,Scheeßel,53.168787,9.482764999999999
03,03357051,Visselhövede,52.985561,9.580361
03,03357006,Bothel,53.07374,9.503907
03,03357009,Brockel,53.095164000000004,9.520585
03,03357024,Hemsbünde,53.090966,9.467216
03,03357025,Hemslingen,53.087928000000005,9.597826
03,03357031,Kirchwalsede,53.020945999999995,9.393998
03,03357054,Westerwalsede,53.03289399999999,9.363678
03,03357015,Fintel,53.172334,9.667823
03,03357023,Helvesiek,53.21583100000001,9.490545
03,03357033,Lauenbrück,53.200718,9.552301
03,03357046,Stemmen,53.223891,9.554485000000001
03,03357049,Vahlde,53.186161,9.631827000000001
03,03357002,Alfstedt,53.548503000000004,9.067399
03,03357004,Basdahl,53.443117,8.997025
03,03357012,Ebersdorf,53.526451,9.052283000000001
03,03357027,Hipstedt,53.483412,8.968535000000001
03,03357035,Oerel,53.481562,9.055829
03,03357003,Anderlingen,53.372365,9.302152
03,03357011,Deinstedt,53.408604000000004,9.225923
03,03357014,Farven,53.433712,9.321113
03,03357036,Ostereistedt,53.302593,9.170931
03,03357038,Rhade,53.328359,9.115092
03,03357040,Sandbostel,53.408887,9.130078
03,03357042,Seedorf,53.348587,9.226714999999999
03,03357043,Selsingen,53.372186,9.214158
03,03357017,Groß Meckelsen,53.288323,9.447514
03,03357019,Hamersen,53.253122999999995,9.481584
03,03357029,Kalbe,53.29509300000001,9.550106
03,03357032,Klein Meckelsen,53.30395,9.451117
03,03357034,Lengenbostel,53.29819499999999,9.514901
03,03357044,Sittensen,53.278797999999995,9.504941
03,03357048,Tiste,53.286106000000004,9.53299
03,03357050,Vierden,53.329175,9.506093
03,03357056,Wohnste,53.364291,9.531346000000001
03,03357001,Ahausen,53.062929000000004,9.313313
03,03357005,Bötersen,53.13671,9.31564
03,03357020,Hassendorf,53.112171,9.26805
03,03357022,Hellwege,53.07403299999999,9.232909
03,03357028,Horstedt,53.17766700000001,9.228799
03,03357037,Reeßum,53.132422999999996,9.203387
03,03357045,Sottrum,53.113013,9.228280999999999
03,03357007,Breddorf,53.291695,9.081513000000001
03,03357010,Bülstedt,53.213285,9.161294999999999
03,03357026,Hepstedt,53.258743,9.082647999999999
03,03357030,Kirchtimke,53.250972,9.150798
03,03357047,Tarmstedt,53.226780000000005,9.079241
03,03357052,Vorwerk,53.186758999999995,9.160752
03,03357053,Westertimke,53.239068,9.132836
03,03357055,Wilstedt,53.194726,9.092787
03,03357013,Elsdorf,53.242622,9.35309
03,03357018,Gyhum,53.219784,9.311102
03,03357021,Heeslingen,53.314849,9.335088
03,03357057,Zeven,53.295694999999995,9.278731
03,03358002,Bispingen,53.082077000000005,9.996078
03,03358004,Bomlitz,52.902751,9.660721
03,03358008,Bad Fallingbostel,52.865924,9.693984
03,03358016,Munster,52.98650799999999,10.092879
03,03358017,Neuenkirchen,53.032982999999994,9.704085000000001
03,03358019,Schneverdingen,53.118479,9.787463
03,03358021,Soltau,52.987347,9.837525
03,03358022,Walsrode,52.860282999999995,9.595147
03,03358023,Wietzendorf,52.917429000000006,9.97608
03,03358001,Ahlden (Aller),52.759772,9.552615
03,03358006,Eickeloh,52.729274,9.60632
03,03358011,Grethem,52.724258999999996,9.579108999999999
03,03358012,Hademstorf,52.713325,9.631441
03,03358014,Hodenhagen,52.762312,9.583616000000001
03,03358003,Böhme,52.790443999999994,9.477428
03,03358009,Frankenfeld,52.768678,9.428854
03,03358013,Häuslingen,52.809644999999996,9.392826
03,03358018,Rethem (Aller),52.785453000000004,9.381525
03,03358005,Buchholz (Aller),52.676713,9.679791
03,03358007,Essel,52.6919,9.64201
03,03358010,Gilten,52.706176,9.571926
03,03358015,Lindwedel,52.607805000000006,9.687712
03,03358020,Schwarmstedt,52.676252000000005,9.617614
03,03358501,Osterheide,52.775261,9.722000000000001
03,03359010,Buxtehude,53.475851,9.698611
03,03359013,Drochtersen,53.709623,9.385083999999999
03,03359028,Jork,53.53298,9.680838
03,03359038,Stade,53.601302000000004,9.475977
03,03359003,Apensen,53.433181000000005,9.613548
03,03359006,Beckdorf,53.41313100000001,9.610546000000001
03,03359037,Sauensiek,53.379351,9.599388000000001
03,03359011,Deinste,53.527349,9.442677
03,03359017,Fredenbeck,53.530646,9.405402
03,03359031,Kutenholz,53.481264,9.322712
03,03359002,Ahlerstedt,53.405314000000004,9.451981
03,03359005,Bargstedt,53.461278,9.446047
03,03359008,Brest,53.450913,9.382622999999999
03,03359023,Harsefeld,53.452282,9.500801
03,03359001,Agathenburg,53.562844999999996,9.528825
03,03359007,Bliedersdorf,53.481478,9.569528
03,03359012,Dollern,53.54059,9.544405000000001
03,03359027,Horneburg,53.506914,9.584394
03,03359034,Nottensdorf,53.485861,9.601936
03,03359020,Grünendeich,53.568752,9.622879
03,03359021,Guderhandviertel,53.543764,9.610857000000001
03,03359026,Hollern-Twielenfleth,53.592167,9.55077
03,03359032,Mittelnkirchen,53.54829300000001,9.61251
03,03359033,Neuenkirchen,53.527423999999996,9.606724
03,03359039,Steinkirchen,53.565364,9.610086
03,03359004,Balje,53.831509999999994,9.133613
03,03359018,Freiburg (Elbe),53.824052,9.287803
03,03359030,Krummendeich,53.830105,9.207825
03,03359035,Oederquart,53.80471800000001,9.239116000000001
03,03359040,Wischhafen,53.774789,9.319527
03,03359009,Burweg,53.624639,9.263555
03,03359014,Düdenbüttel,53.59135500000001,9.347572999999999
03,03359015,Engelschoff,53.663293,9.324344
03,03359016,Estorf,53.576153000000005,9.203619
03,03359019,Großenwörden,53.679435999999995,9.258854
03,03359022,Hammah,53.618178,9.365901
03,03359024,Heinbockel,53.574148,9.326721000000001
03,03359025,Himmelpforten,53.614176,9.30532
03,03359029,Kranenburg,53.605166000000004,9.207459
03,03359036,Oldendorf,53.590561,9.25183
03,03360004,Bienenbüttel,53.141608,10.491508999999999
03,03360025,Uelzen,52.96495,10.560601
03,03360015,Oetzen,53.021961,10.674941
03,03360016,Rätzlingen,52.975896,10.675921
03,03360018,Rosche,52.986676,10.751954
03,03360022,Stoetze,53.067861,10.781459
03,03360024,Suhlendorf,52.925822,10.768375
03,03360007,Eimke,52.966871999999995,10.313542
03,03360009,Gerdau,52.967698,10.419084
03,03360023,Suderburg,52.895002000000005,10.452948
03,03360001,Altenmedingen,53.13109300000001,10.602557000000001
03,03360002,Bad Bevensen,53.080197999999996,10.575419
03,03360003,Barum,53.052039,10.516724
03,03360006,Ebstorf,53.028888,10.412859
03,03360008,Emmendorf,53.02389300000001,10.567913
03,03360010,Hanstedt,53.046471,10.375843
03,03360011,Himbergen,53.093106999999996,10.727876
03,03360012,Jelmstorf,53.10099399999999,10.522747
03,03360014,Natendorf,53.079751,10.470696
03,03360017,Römstedt,53.095509,10.650651
03,03360019,Schwienau,52.993885,10.406058999999999
03,03360026,Weste,53.059515000000005,10.706469
03,03360029,Wriedel,53.031918000000005,10.299221000000001
03,03360005,Bad Bodenteich,52.83409399999999,10.678449
03,03360013,Lüder,52.808703,10.666284
03,03360020,Soltendieck,52.875028,10.759167
03,03360030,Wrestedt,52.901996999999994,10.572386
03,03361001,Achim,53.013009999999994,9.033031
03,03361003,Dörverden,52.847043000000006,9.227519000000001
03,03361005,Kirchlinteln,52.939262,9.314682000000001
03,03361006,Langwedel,52.978653,9.170921
03,03361008,Ottersberg,53.108272,9.142733999999999
03,03361009,Oyten,53.059583999999994,9.018071
03,03361012,Verden (Aller),52.923403,9.231105
03,03361002,Blender,52.926727,9.133699
03,03361004,Emtinghausen,52.931761,8.966038000000001
03,03361010,Riede,52.967319999999994,8.940919000000001
03,03361013,Thedinghausen,52.961976,9.020688999999999
03,03401000,Delmenhorst,53.049882999999994,8.630108
03,03402000,Emden,53.370557999999996,7.205946000000001
03,03403000,Oldenburg (Oldb),53.140025,8.212992999999999
03,03404000,Osnabrück,52.276920000000004,8.04205
03,03405000,Wilhelmshaven,53.520302,8.111156
03,03451001,Apen,53.218179000000006,7.80595
03,03451002,Bad Zwischenahn,53.180788,8.008329
03,03451004,Edewecht,53.124849,7.981292999999999
03,03451005,Rastede,53.247323,8.198294
03,03451007,Westerstede,53.25747,7.923249
03,03451008,Wiefelstede,53.255295999999994,8.116738
03,03452001,Aurich,53.469894999999994,7.4823770000000005
03,03452002,Baltrum,53.727865,7.368637
03,03452006,Großefehn,53.408733,7.584916000000001
03,03452007,Großheide,53.592271999999994,7.343594
03,03452011,Hinte,53.415473999999996,7.193842999999999
03,03452012,Ihlow,53.406413,7.419635
03,03452013,Juist,53.678466,6.996014999999999
03,03452014,Krummhörn,53.445965,7.07975
03,03452019,Norden,53.59498000000001,7.202462
03,03452020,Norderney,53.707276,7.145430999999999
03,03452023,Südbrookmerland,53.466916000000005,7.329464999999999
03,03452025,Wiesmoor,53.413194,7.733282000000001
03,03452027,Dornum,53.647599,7.428549
03,03452015,Leezdorf,53.548097999999996,7.2952520000000005
03,03452017,Marienhafe,53.523065,7.273447
03,03452021,Osteel,53.541127,7.252939
03,03452022,Rechtsupweg,53.528801,7.32675
03,03452024,Upgant-Schott,53.511863,7.268522999999999
03,03452026,Wirdum,53.479094999999994,7.206717
03,03452003,Berumbur,53.587826,7.323842
03,03452008,Hage,53.602759,7.284319
03,03452009,Hagermarsch,53.650938000000004,7.288112
03,03452010,Halbemond,53.567859999999996,7.290133
03,03452016,Lütetsburg,53.600545,7.246801
03,03453001,Barßel,53.168704000000005,7.745157000000001
03,03453002,Bösel,53.00595,7.954296
03,03453003,Cappeln (Oldenburg),52.81131,8.113999
03,03453004,Cloppenburg,52.84836800000001,8.042518
03,03453005,Emstek,52.834011,8.155308
03,03453006,Essen (Oldenburg),52.719834,7.939404
03,03453007,Friesoythe,53.020613,7.8594479999999995
03,03453008,Garrel,52.955028000000006,8.023923
03,03453009,Lastrup,52.795030000000004,7.864551
03,03453010,Lindern (Oldenburg),52.844711,7.7799130000000005
03,03453011,Löningen,52.735274,7.757442999999999
03,03453012,Molbergen,52.858718,7.922121000000001
03,03453013,Saterland,53.081978,7.705497
03,03454010,Emsbüren,52.392739,7.292613
03,03454014,Geeste,52.600995,7.266686
03,03454018,Haren (Ems),52.790479000000005,7.241753999999999
03,03454019,Haselünne,52.67361,7.486717999999999
03,03454032,Lingen (Ems),52.52229499999999,7.316682000000001
03,03454035,Meppen,52.690830000000005,7.291937
03,03454041,Papenburg,53.078104,7.393066999999999
03,03454044,Rhede (Ems),53.059435,7.272848
03,03454045,Salzbergen,52.323115,7.347538
03,03454054,Twist,52.635127000000004,7.060753999999999
03,03454007,Dersum,52.959793000000005,7.276146000000001
03,03454008,Dörpen,52.965517000000006,7.32235
03,03454020,Heede,52.993267,7.298922999999999
03,03454025,Kluse,52.93345600000001,7.342799
03,03454030,Lehe,53.002706999999994,7.343489999999999
03,03454037,Neubörger,52.955288,7.449731
03,03454038,Neulehe,53.00830799999999,7.414249000000001
03,03454056,Walchum,52.930597999999996,7.282138000000001
03,03454060,Wippingen,52.924918000000005,7.406911
03,03454001,Andervenne,52.508948,7.570946000000001
03,03454003,Beesten,52.435959999999994,7.497700999999999
03,03454012,Freren,52.486741,7.5438979999999995
03,03454036,Messingen,52.466511,7.460185000000001
03,03454053,Thuine,52.498886999999996,7.489624000000001
03,03454009,Dohren,52.645140000000005,7.584082
03,03454021,Herzlake,52.684854,7.606648
03,03454026,Lähden,52.744149,7.567496
03,03454013,Fresenburg,52.884513,7.300841999999999
03,03454029,Lathen,52.862487,7.314352
03,03454039,Niederlangen,52.856972,7.284729
03,03454040,Oberlangen,52.849165,7.275066000000001
03,03454043,Renkenberge,52.90841999999999,7.377889
03,03454052,Sustrum,52.911212,7.28378
03,03454002,Bawinkel,52.600387,7.411491000000001
03,03454015,Gersten,52.571887,7.4953710000000004
03,03454017,Handrup,52.565785999999996,7.570788
03,03454028,Langen,52.541236,7.4689179999999995
03,03454031,Lengerich,52.553577000000004,7.532282
03,03454059,Wettrup,52.588708,7.596491
03,03454004,Bockhorst,53.035299,7.573971
03,03454006,Breddenberg,52.953742000000005,7.607867999999999
03,03454011,Esterwegen,52.99306800000001,7.6330160000000005
03,03454022,Hilkenbrook,52.984367000000006,7.708069999999999
03,03454051,Surwold,52.982915000000006,7.519272
03,03454005,Börger,52.912037,7.533850999999999
03,03454016,Groß Berßen,52.775062,7.494905999999999
03,03454023,Hüven,52.785937,7.551908
03,03454024,Klein Berßen,52.768675,7.463796
03,03454047,Sögel,52.840844999999995,7.523528
03,03454048,Spahnharrenstätte,52.869905,7.60188
03,03454050,Stavern,52.787772,7.432155000000001
03,03454058,Werpeloh,52.875507999999996,7.507496000000001
03,03454034,Lünne,52.43095,7.4237779999999995
03,03454046,Schapen,52.401912,7.558824
03,03454049,Spelle,52.367401,7.469059
03,03454027,Lahn,52.81632,7.616105
03,03454033,Lorup,52.924387,7.644995
03,03454042,Rastdorf,52.912597999999996,7.7091970000000005
03,03454055,Vrees,52.887604,7.774537
03,03454057,Werlte,52.851059,7.678432000000001
03,03455007,Jever,53.57560600000001,7.900312
03,03455014,Sande,53.49975,8.016119999999999
03,03455015,Schortens,53.540473999999996,7.948405999999999
03,03455020,Wangerland,53.651613,7.935086999999999
03,03455021,Wangerooge,53.791534999999996,7.899863000000001
03,03455025,Bockhorn,53.393303,8.012886
03,03455026,Varel,53.394916,8.135174000000001
03,03455027,Zetel,53.41816899999999,7.973712
03,03456001,Bad Bentheim,52.302515,7.159614
03,03456015,Nordhorn,52.435804000000005,7.071263
03,03456025,Wietmarschen,52.519580000000005,7.132325999999999
03,03456002,Emlichheim,52.606837,6.853449
03,03456009,Hoogstede,52.581113,6.947960000000001
03,03456012,Laar,52.613440000000004,6.740122
03,03456019,Ringe,52.601626,6.951461999999999
03,03456004,Esche,52.541454,6.959225999999999
03,03456005,Georgsdorf,52.5707,7.070904
03,03456013,Lage,52.468027,6.961467
03,03456014,Neuenhaus,52.498188,6.9663889999999995
03,03456017,Osterwald,52.544397,7.040092
03,03456003,Engden,52.391482,7.175182
03,03456010,Isterberg,52.349467,7.136378999999999
03,03456016,Ohne,52.272738000000004,7.283482000000001
03,03456018,Quendorf,52.338466,7.208196000000001
03,03456020,Samern,52.299715,7.255961999999999
03,03456027,Schüttorf,52.322484,7.225202
03,03456006,Getelo,52.469547999999996,6.841933
03,03456007,Gölenkamp,52.51024,6.916021000000001
03,03456008,Halle,52.453233,6.91795
03,03456011,Itterbeck,52.505277,6.801311999999999
03,03456023,Uelsen,52.49633000000001,6.885313000000001
03,03456024,Wielen,52.546958999999994,6.733946
03,03456026,Wilsum,52.535789,6.855597
03,03457002,Borkum,53.588001,6.6645970000000005
03,03457012,Jemgum,53.265053,7.3827050000000005
03,03457013,Leer (Ostfriesland),53.229486,7.451485000000001
03,03457014,Moormerland,53.32541,7.429228
03,03457017,Ostrhauderfehn,53.13993000000001,7.619279
03,03457018,Rhauderfehn,53.147379,7.547216000000001
03,03457020,Uplengen,53.298378,7.772939
03,03457021,Weener,53.165510999999995,7.3498339999999995
03,03457022,Westoverledingen,53.157844,7.431133999999999
03,03457024,Bunde,53.184408,7.269253
03,03457003,Brinkum,53.267565000000005,7.558982
03,03457009,Firrel,53.330580000000005,7.662352
03,03457010,Hesel,53.305406000000005,7.59365
03,03457011,Holtland,53.277841,7.578676
03,03457015,Neukamperfehn,53.337790000000005,7.557533
03,03457019,Schwerinsdorf,53.310114,7.659246
03,03457006,Detern,53.210395,7.674889
03,03457008,Filsum,53.245091,7.625503999999999
03,03457016,Nortmoor,53.247364000000005,7.562055
03,03458003,Dötlingen,52.93637,8.381561999999999
03,03458005,Ganderkesee,53.034068000000005,8.547500999999999
03,03458007,Großenkneten,52.944821999999995,8.256473
03,03458009,Hatten,53.038956000000006,8.338743
03,03458010,Hude (Oldb),53.112607,8.457772
03,03458013,Wardenburg,53.059731000000006,8.19767
03,03458014,Wildeshausen,52.894686,8.431942
03,03458001,Beckeln,52.861461,8.582061999999999
03,03458002,Colnrade,52.822051,8.475271000000001
03,03458004,Dünsen,52.924212,8.637791
03,03458006,Groß Ippener,52.959055000000006,8.618161
03,03458008,Harpstedt,52.909164000000004,8.586698
03,03458011,Kirchseelte,52.947927,8.677636
03,03458012,Prinzhöfte,52.949920999999996,8.563587
03,03458015,Winkelsett,52.872468000000005,8.528063000000001
03,03459003,Bad Essen,52.319617,8.343950999999999
03,03459004,Bad Iburg,52.156471,8.045253
03,03459005,Bad Laer,52.100739000000004,8.08725
03,03459006,Bad Rothenfelde,52.108934000000005,8.160784
03,03459008,Belm,52.302111,8.140642999999999
03,03459012,Bissendorf,52.235465999999995,8.16853
03,03459013,Bohmte,52.367543,8.313498
03,03459014,Bramsche,52.406729,7.97915
03,03459015,Dissen am Teutoburger Wald,52.114734999999996,8.201339
03,03459019,Georgsmarienhütte,52.206154,8.03415
03,03459020,Hagen am Teutoburger Wald,52.197155,7.9780619999999995
03,03459021,Hasbergen,52.243059,7.955852
03,03459022,Hilter am Teutoburger Wald,52.13943,8.146028999999999
03,03459024,Melle,52.201721,8.335672
03,03459029,Ostercappeln,52.345657,8.226132000000002
03,03459033,Wallenhorst,52.350532,8.015405
03,03459034,Glandorf,52.086017,7.997313
03,03459007,Badbergen,52.633175,7.981071000000001
03,03459025,Menslage,52.674882,7.818913
03,03459028,Nortrup,52.614148,7.8594800000000005
03,03459030,Quakenbrück,52.675863,7.956372
03,03459001,Alfhausen,52.503379,7.953473
03,03459002,Ankum,52.541026,7.8712860000000004
03,03459010,Bersenbrück,52.555167000000004,7.947724000000001
03,03459016,Eggermühlen,52.568715000000005,7.815537
03,03459018,Gehrde,52.577704000000004,8.007394
03,03459023,Kettenkamp,52.586332999999996,7.829919
03,03459031,Rieste,52.484176,8.011956
03,03459009,Berge,52.621017,7.747578999999999
03,03459011,Bippen,52.582613,7.740175
03,03459017,Fürstenau,52.516666,7.674799
03,03459026,Merzen,52.477059999999994,7.830143
03,03459027,Neuenkirchen,52.41908,7.83787
03,03459032,Voltlage,52.430409,7.744771000000001
03,03460001,Bakum,52.742405000000005,8.194111999999999
03,03460002,Damme,52.521308,8.196486
03,03460003,Dinklage,52.661041000000004,8.123768
03,03460004,Goldenstedt,52.787668999999994,8.430766
03,03460005,Holdorf,52.588255000000004,8.123228999999998
03,03460006,Lohne (Oldenburg),52.665580000000006,8.238487
03,03460007,Neuenkirchen-Vörden,52.506112,8.084503
03,03460008,Steinfeld (Oldenburg),52.586923999999996,8.217044999999999
03,03460009,Vechta,52.727529000000004,8.284838
03,03460010,Visbek,52.836739,8.312532000000001
03,03461001,Berne,53.184901,8.477527
03,03461002,Brake (Unterweser),53.326342000000004,8.478138000000001
03,03461003,Butjadingen,53.541275,8.342839999999999
03,03461004,Elsfleth,53.237137,8.457116000000001
03,03461005,Jade,53.35149200000001,8.240675999999999
03,03461006,Lemwerder,53.163624,8.617108
03,03461007,Nordenham,53.484863,8.484084
03,03461008,Ovelgönne,53.34223299999999,8.422554
03,03461009,Stadland,53.42474300000001,8.374303999999999
03,03462005,Friedeburg,53.45565,7.837696
03,03462007,Langeoog,53.747016,7.4793210000000006
03,03462014,Spiekeroog,53.770745,7.696086
03,03462019,Wittmund,53.575515,7.780017999999999
03,03462002,Dunum,53.597315,7.643919
03,03462003,Esens,53.642701,7.612336
03,03462006,Holtgast,53.632076,7.58033
03,03462008,Moorweg,53.592245999999996,7.585891999999999
03,03462010,Neuharlingersiel,53.699290000000005,7.704211
03,03462015,Stedesdorf,53.625067,7.663569
03,03462017,Werdum,53.658669999999994,7.715878999999999
03,03462001,Blomberg,53.575775,7.558372
03,03462004,Eversmeer,53.561363,7.4288929999999995
03,03462009,Nenndorf,53.590137,7.434157000000001
03,03462011,Neuschoo,53.577456999999995,7.512686
03,03462012,Ochtersum,53.617535,7.539484
03,03462013,Schweindorf,53.600814,7.4743509999999995
03,03462016,Utarp,53.611076000000004,7.4833479999999994
03,03462018,Westerholt,53.590175,7.457871000000001
04,04011000,Bremen,53.07560600000001,8.809338
04,04012000,Bremerhaven,53.543439,8.577658
05,05111000,Düsseldorf,51.22422,6.780067999999999
05,05112000,Duisburg,51.433259,6.765477000000001
05,05113000,Essen,51.455843,7.012583
05,05114000,Krefeld,51.332637,6.56089
05,05116000,Mönchengladbach,51.194472999999995,6.43161
05,05117000,Mülheim an der Ruhr,51.428107000000004,6.88505
05,05119000,Oberhausen,51.470317,6.852291
05,05120000,Remscheid,51.179878,7.194356
05,05122000,Solingen,51.17159,7.0829070000000005
05,05124000,Wuppertal,51.259755,7.1913979999999995
05,05154004,Bedburg-Hau,51.769569,6.179647
05,05154008,Emmerich am Rhein,51.831485,6.242771
05,05154012,Geldern,51.517533,6.323569
05,05154016,Goch,51.674645,6.158868
05,05154020,Issum,51.534877,6.425912
05,05154024,Kalkar,51.737225,6.287775
05,05154028,Kerken,51.453028,6.397946
05,05154032,Kevelaer,51.58178,6.24718
05,05154036,Kleve,51.787781,6.138858
05,05154040,Kranenburg,51.789765,6.007969
05,05154044,Rees,51.759506,6.39621
05,05154048,Rheurdt,51.466922,6.469857
05,05154052,Straelen,51.44292,6.2653669999999995
05,05154056,Uedem,51.668248999999996,6.272676000000001
05,05154060,Wachtendonk,51.408082,6.343102
05,05154064,Weeze,51.626753,6.198205000000001
05,05158004,Erkrath,51.218565999999996,6.913114
05,05158008,Haan,51.192305,7.010639
05,05158012,Heiligenhaus,51.326038,6.966531
05,05158016,Hilden,51.168245,6.933705000000001
05,05158020,Langenfeld (Rhld.),51.107416,6.948927
05,05158024,Mettmann,51.251915000000004,6.978743
05,05158026,Monheim am Rhein,51.091763,6.893006
05,05158028,Ratingen,51.297036999999996,6.849646000000001
05,05158032,Velbert,51.340047999999996,7.0416289999999995
05,05158036,Wülfrath,51.280989,7.033183
05,05162004,Dormagen,51.093432,6.841963000000001
05,05162008,Grevenbroich,51.091192,6.583330999999999
05,05162012,Jüchen,51.100795,6.503837
05,05162016,Kaarst,51.231804,6.614471000000001
05,05162020,Korschenbroich,51.191266,6.51509
05,05162022,Meerbusch,51.261027,6.677859
05,05162024,Neuss,51.198873,6.691408999999999
05,05162028,Rommerskirchen,51.034328,6.688992
05,05166004,Brüggen,51.242067,6.185264
05,05166008,Grefrath,51.336498,6.342117
05,05166012,Kempen,51.364492999999996,6.418755
05,05166016,Nettetal,51.327818,6.245853
05,05166020,Niederkrüchten,51.19862,6.219216
05,05166024,Schwalmtal,51.215034,6.259812999999999
05,05166028,Tönisvorst,51.310182,6.464745
05,05166032,Viersen,51.252848,6.393489
05,05166036,Willich,51.262541999999996,6.550043
05,05170004,Alpen,51.575134000000006,6.511241
05,05170008,Dinslaken,51.562265999999994,6.734967
05,05170012,Hamminkeln,51.730832,6.589158
05,05170016,Hünxe,51.642308,6.766381
05,05170020,Kamp-Lintfort,51.501022,6.549693
