state,ags,name,plz,lat,lon,search
01,1001000,Flensburg,24937,54.78252,9.437510000000001,flensburg
01,1002000,Kiel,24103,54.321775,10.13727,kiel
01,1003000,Lübeck,23539,53.866268999999996,10.683932,lübeck
01,1004000,Neumünster,24534,54.069894999999995,9.988422,neumünster
01,1051011,Brunsbüttel,25541,53.896665000000006,9.126939,brunsbüttel
01,1051044,Heide,25746,54.195834,9.095400999999999,heide
01,1051003,Averlak,25715,53.941154000000004,9.182663,averlak
01,1051010,Brickeln,25712,54.00849,9.221166,brickeln
01,1051012,Buchholz,25712,53.987198,9.223594,buchholz
01,1051016,Burg (Dithmarschen),25712,53.995937,9.258097,burg (dithmarschen)
01,1051022,Dingen,25715,53.960888,9.125803999999999,dingen
01,1051024,Eddelak,25715,53.945505000000004,9.137789,eddelak
01,1051026,Eggstedt,25721,54.054534999999994,9.259269999999999,eggstedt
01,1051032,Frestedt,25727,54.023639,9.175759,frestedt
01,1051037,Großenrade,25712,54.022051,9.223436,großenrade
01,1051051,Hochdonn,25712,54.019565,9.29316,hochdonn
01,1051064,Kuden,25712,53.967853000000005,9.192822,kuden
01,1051089,Quickborn,25712,54.009975,9.206619,quickborn
01,1051097,Sankt Michaelisdonn,25693,53.994438,9.122148,sankt michaelisdonn
01,1051110,Süderhastedt,25727,54.04991,9.208860000000001,süderhastedt
01,1051021,Diekhusen-Fahrstedt,25709,53.942365,9.028338,diekhusen-fahrstedt
01,1051034,Friedrichskoog,25718,54.013926,8.89741,friedrichskoog
01,1051046,Helse,25709,53.97755600000001,9.010226,helse
01,1051057,Kaiser-Wilhelm-Koog,25709,53.942933,8.926364,kaiser-wilhelm-koog
01,1051062,Kronprinzenkoog,25709,53.971709,8.964497999999999,kronprinzenkoog
01,1051072,Marne,25709,53.953694999999996,9.008761,marne
01,1051073,Marnerdeich,25709,53.94846,8.983369,marnerdeich
01,1051076,Neufeld,25724,53.907224,9.019046000000001,neufeld
01,1051077,Neufelderkoog,25724,53.906887,8.968891000000001,neufelderkoog
01,1051090,Ramhusen,25715,53.94120699999999,9.090658,ramhusen
01,1051103,Schmedeswurth,25724,53.926171999999994,9.040335,schmedeswurth
01,1051118,Trennewurth,25693,54.000216,9.02715,trennewurth
01,1051119,Volsemenhusen,25693,53.967901,9.065625,volsemenhusen
01,1051005,Barkenholm,25791,54.237387,9.174339,barkenholm
01,1051008,Bergewöhrden,25779,54.31846899999999,9.209425999999999,bergewöhrden
01,1051019,Dellstedt,25786,54.237892,9.369143,dellstedt
01,1051020,Delve,25788,54.303978,9.252365,delve
01,1051023,Dörpling,25794,54.260654,9.301925,dörpling
01,1051030,Fedderingen,25779,54.281144,9.132642,fedderingen
01,1051035,Gaushorn,25782,54.19489599999999,9.225318,gaushorn
01,1051036,Glüsing,25779,54.274547,9.216421,glüsing
01,1051038,Groven,25774,54.300165,8.989147,groven
01,1051047,Hemme,25774,54.28021,9.010966,hemme
01,1051049,Hennstedt,25779,54.283636,9.168248,hennstedt
01,1051052,Hövede,25782,54.243806000000006,9.293409,hövede
01,1051053,Hollingstedt,25788,54.290548,9.226797,hollingstedt
01,1051058,Karolinenkoog,25774,54.292379000000004,8.965425,karolinenkoog
01,1051060,Kleve,25779,54.295634,9.123185000000001,kleve
01,1051061,Krempel,25774,54.320018999999995,9.027607000000001,krempel
01,1051065,Lehe,25774,54.344168,9.025333999999999,lehe
01,1051068,Linden,25791,54.252623,9.182428,linden
01,1051071,Lunden,25774,54.33056800000001,9.024249000000001,lunden
01,1051080,Norderheistedt,25779,54.24533100000001,9.146139,norderheistedt
01,1051088,Pahlen,25794,54.267813000000004,9.296387,pahlen
01,1051092,Rehm-Flehde-Bargen,25776,54.291775,9.038383,rehm-flehde-bargen
01,1051096,Sankt Annen,25776,54.345413,9.07975,sankt annen
01,1051100,Schalkholz,25782,54.246244,9.257028,schalkholz
01,1051102,Schlichting,25779,54.310140000000004,9.089378,schlichting
01,1051114,Tellingstedt,25782,54.21996800000001,9.281893,tellingstedt
01,1051117,Tielenhemme,25794,54.269463,9.378654,tielenhemme
01,1051120,Wallen,25788,54.2845,9.269538,wallen
01,1051125,Welmbüttel,25782,54.196873,9.246825999999999,welmbüttel
01,1051131,Westerborstel,25782,54.220136,9.260601,westerborstel
01,1051133,Wiemerstedt,25779,54.269296999999995,9.111231,wiemerstedt
01,1051136,Wrohm,25799,54.212642,9.379505,wrohm
01,1051139,Süderdorf,25782,54.207468000000006,9.343789,süderdorf
01,1051141,Süderheistedt,25779,54.23483,9.148463000000001,süderheistedt
01,1051048,Hemmingstedt,25770,54.148759999999996,9.073155999999999,hemmingstedt
01,1051067,Lieth,25770,54.15531,9.060773,lieth
01,1051069,Lohe-Rickelshof,25746,54.187792,9.065769,lohe-rickelshof
01,1051075,Neuenkirchen,25792,54.235651000000004,8.988145,neuenkirchen
01,1051081,Norderwöhrden,25746,54.192783,9.000232,norderwöhrden
01,1051082,Nordhastedt,25785,54.17205,9.182991000000001,nordhastedt
01,1051087,Ostrohe,25746,54.214,9.130804,ostrohe
01,1051107,Stelle-Wittenwurth,25795,54.262554,9.061114,stelle-wittenwurth
01,1051113,Wöhrden,25797,54.165463,8.994508,wöhrden
01,1051122,Weddingstedt,25795,54.239275,9.088863,weddingstedt
01,1051130,Wesseln,25746,54.208327000000004,9.075443,wesseln
01,1051001,Albersdorf,25767,54.146556999999994,9.283994999999999,albersdorf
01,1051002,Arkebek,25767,54.159662,9.250325,arkebek
01,1051004,Bargenstedt,25704,54.09559399999999,9.144199,bargenstedt
01,1051006,Barlt,25719,54.012443999999995,9.058002,barlt
01,1051015,Bunsoh,25767,54.165521999999996,9.320225,bunsoh
01,1051017,Busenwurth,25719,54.041612,9.041310000000001,busenwurth
01,1051027,Elpersbüttel,25704,54.072963,9.047156,elpersbüttel
01,1051028,Epenwöhrden,25704,54.112805,9.052894,epenwöhrden
01,1051039,Gudendorf,25693,54.024744999999996,9.1082,gudendorf
01,1051054,Immenstedt,25767,54.180686,9.299737,immenstedt
01,1051063,Krumstedt,25727,54.068684,9.177954,krumstedt
01,1051074,Meldorf,25704,54.090945,9.068783999999999,meldorf
01,1051078,Nindorf,25704,54.086721999999995,9.114942999999998,nindorf
01,1051083,Odderade,25785,54.139384,9.190795,odderade
01,1051085,Offenbüttel,25767,54.169258,9.358039,offenbüttel
01,1051086,Osterrade,25767,54.190212,9.353264,osterrade
01,1051098,Sarzbüttel,25785,54.118970999999995,9.184289,sarzbüttel
01,1051099,Schafstedt,25725,54.079915,9.293675,schafstedt
01,1051104,Schrum,25782,54.187229,9.251667,schrum
01,1051126,Wennbüttel,25767,54.13796899999999,9.32237,wennbüttel
01,1051134,Windbergen,25729,54.044949,9.117929,windbergen
01,1051135,Wolmersdorf,25704,54.077114,9.103978,wolmersdorf
01,1051137,Nordermeldorf,25704,54.104638,9.013655,nordermeldorf
01,1051138,Tensbüttel-Röst,25767,54.116572,9.237322,tensbüttel-röst
01,1051013,Büsum,25761,54.129253000000006,8.860613,büsum
01,1051014,Büsumer Deichhausen,25761,54.136175,8.890088,büsumer deichhausen
01,1051033,Friedrichsgabekoog,25764,54.157516,8.941082000000002,friedrichsgabekoog
01,1051043,Hedwigenkoog,25761,54.177985,8.840953,hedwigenkoog
01,1051045,Hellschen-Heringsand-Unterschaar,25764,54.194536,8.872882,hellschen-heringsand-unterschaar
01,1051050,Hillgroven,25764,54.227920999999995,8.874901,hillgroven
01,1051079,Norddeich,25764,54.218058,8.899964,norddeich
01,1051084,Oesterdeichstrich,25761,54.158891000000004,8.900566,oesterdeichstrich
01,1051093,Reinsbüttel,25764,54.179072999999995,8.911057000000001,reinsbüttel
01,1051105,Schülp,25764,54.241971,8.929943,schülp
01,1051108,Strübbel,25792,54.260389,8.971812,strübbel
01,1051109,Süderdeich,25764,54.201710999999996,8.91131,süderdeich
01,1051121,Warwerort,25761,54.141177,8.921723,warwerort
01,1051127,Wesselburen,25764,54.212159,8.920686,wesselburen
01,1051128,Wesselburener Deichhausen,25764,54.174946999999996,8.937237,wesselburener deichhausen
01,1051129,Wesselburenerkoog,25764,54.239245,8.876161,wesselburenerkoog
01,1051132,Westerdeichstrich,25761,54.162006000000005,8.863517,westerdeichstrich
01,1051140,Oesterwurth,25764,54.210345999999994,8.976801,oesterwurth
01,1053032,Geesthacht,21502,53.433384999999994,10.371623,geesthacht
01,1053083,Lauenburg/Elbe,21481,53.374189,10.554267,lauenburg/elbe
01,1053090,Mölln,23879,53.629521,10.691022,mölln
01,1053100,Ratzeburg,23909,53.699024,10.774492,ratzeburg
01,1053116,Schwarzenbek,21493,53.502644999999994,10.477663,schwarzenbek
01,1053129,Wentorf bei Hamburg,21465,53.491012,10.2519,wentorf bei hamburg
01,1053008,Behlendorf,23919,53.699475,10.667846,behlendorf
01,1053009,Berkenthin,23919,53.73456899999999,10.638297,berkenthin
01,1053011,Bliestorf,23847,53.768797,10.602527,bliestorf
01,1053024,Düchelsdorf,23847,53.737072,10.580373,düchelsdorf
01,1053034,Göldenitz,23919,53.722025,10.631501,göldenitz
01,1053061,Kastorf,23847,53.748875,10.570134,kastorf
01,1053067,Klempau,23628,53.762851,10.660387,klempau
01,1053075,Krummesse,23628,53.780122999999996,10.641961,krummesse
01,1053094,Niendorf bei Berkenthin,23919,53.702417000000004,10.626158,niendorf bei berkenthin
01,1053103,Rondeshagen,23919,53.753642000000006,10.629717,rondeshagen
01,1053120,Sierksrade,23847,53.736555,10.600344,sierksrade
01,1053002,Alt Mölln,23881,53.622775,10.658164999999999,alt mölln
01,1053005,Bälau,23881,53.616381000000004,10.621739,bälau
01,1053013,Borstorf,23881,53.613074,10.564233999999999,borstorf
01,1053014,Breitenfelde,23881,53.605112,10.632977,breitenfelde
01,1053037,Grambek,23883,53.574025,10.68068,grambek
01,1053056,Hornbek,21514,53.5589,10.648548,hornbek
01,1053084,Lehmrade,23883,53.5947,10.752721000000001,lehmrade
01,1053095,Niendorf/Stecknitz,23881,53.587228,10.609244,niendorf/stecknitz
01,1053113,Schretstaken,21493,53.58906999999999,10.554081,schretstaken
01,1053125,Talkau,21493,53.57715699999999,10.569208999999999,talkau
01,1053134,Woltersdorf,21516,53.5768,10.639911999999999,woltersdorf
01,1053010,Besenthal,23899,53.530139,10.743238999999999,besenthal
01,1053015,Bröthen,21514,53.480408999999995,10.667504,bröthen
01,1053020,Büchen,21514,53.480926000000004,10.616482000000001,büchen
01,1053029,Fitzen,21514,53.493942000000004,10.64667,fitzen
01,1053035,Göttin,21514,53.533922,10.70332,göttin
01,1053046,Gudow,23899,53.555336,10.77219,gudow
01,1053048,Güster,21514,53.539519999999996,10.680583,güster
01,1053064,Klein Pampau,21514,53.51268100000001,10.586656,klein pampau
01,1053080,Langenlehsten,21514,53.499816,10.740373,langenlehsten
01,1053092,Müssen,21516,53.494949,10.562042,müssen
01,1053104,Roseburg,21514,53.531303,10.625016,roseburg
01,1053115,Schulendorf,21516,53.47331,10.561815,schulendorf
01,1053119,Siebeneichen,21514,53.510828000000004,10.618692999999999,siebeneichen
01,1053126,Tramm,21516,53.56323100000001,10.614692999999999,tramm
01,1053132,Witzeeze,21514,53.452652,10.610144,witzeeze
01,1053003,Aumühle,21521,53.528449,10.313369999999999,aumühle
01,1053012,Börnsen,21039,53.476625,10.285511999999999,börnsen
01,1053023,Dassendorf,21521,53.488608,10.372665,dassendorf
01,1053028,Escheburg,21039,53.467130000000004,10.309429,escheburg
01,1053050,Hamwarde,21502,53.452847,10.421397,hamwarde
01,1053053,Hohenhorn,21526,53.475564,10.367641,hohenhorn
01,1053072,Kröppelshagen-Fahrendorf,21529,53.488589000000005,10.315197,kröppelshagen-fahrendorf
01,1053131,Wiershop,21502,53.442501,10.451895,wiershop
01,1053133,Wohltorf,21521,53.517253000000004,10.291253999999999,wohltorf
01,1053135,Worth,21502,53.467424,10.409895,worth
01,1053006,Basedow,21483,53.416151,10.583592,basedow
01,1053019,Buchhorst,21481,53.38499300000001,10.568335000000001,buchhorst
01,1053022,Dalldorf,21483,53.435818999999995,10.610809,dalldorf
01,1053058,Juliusburg,21483,53.41715,10.506484,juliusburg
01,1053073,Krüzen,21483,53.401518,10.527113,krüzen
01,1053074,Krukow,21483,53.418864,10.478187,krukow
01,1053082,Lanze,21483,53.386341,10.604387,lanze
01,1053087,Lütau,21483,53.435860999999996,10.545404,lütau
01,1053111,Schnakenbek,21481,53.385426,10.50018,schnakenbek
01,1053128,Wangelau,21483,53.453654,10.546476,wangelau
01,1053001,Albsfelde,23909,53.679956999999995,10.694450999999999,albsfelde
01,1053004,Bäk,23909,53.716345,10.787081,bäk
01,1053016,Brunsmark,23883,53.61710600000001,10.750236,brunsmark
01,1053018,Buchholz,23911,53.731393000000004,10.745377000000001,buchholz
01,1053026,Einhaus,23911,53.714135999999996,10.725697,einhaus
01,1053030,Fredeburg,23909,53.67435699999999,10.72758,fredeburg
01,1053033,Giesensdorf,23909,53.688272999999995,10.713650999999999,giesensdorf
01,1053040,Groß Disnack,23911,53.741974,10.69059,groß disnack
01,1053041,Groß Grönau,23627,53.801387,10.750475999999999,groß grönau
01,1053043,Groß Sarau,23627,53.771586,10.737505,groß sarau
01,1053051,Harmsdorf,23911,53.70040699999999,10.725868,harmsdorf
01,1053054,Hollenbek,23883,53.592192000000004,10.819161,hollenbek
01,1053057,Horst,23883,53.625103,10.771156,horst
01,1053062,Kittlitz,23911,53.664235,10.918869,kittlitz
01,1053066,Klein Zecher,23883,53.577413,10.872803,klein zecher
01,1053078,Kulpin,23911,53.71009,10.695812,kulpin
01,1053088,Mechow,23909,53.71755600000001,10.801815,mechow
01,1053093,Mustin,23911,53.68453,10.886235000000001,mustin
01,1053098,Pogeez,23911,53.750929000000006,10.729435,pogeez
01,1053102,Römnitz,23909,53.710716000000005,10.769067999999999,römnitz
01,1053107,Salem,23911,53.656395999999994,10.827964999999999,salem
01,1053110,Schmilau,23911,53.664589,10.755985,schmilau
01,1053117,Seedorf,23883,53.619223,10.866843,seedorf
01,1053123,Sterley,23883,53.620149,10.817794000000001,sterley
01,1053136,Ziethen,23911,53.693695,10.809322,ziethen
01,1053007,Basthorst,21493,53.576616,10.47139,basthorst
01,1053017,Brunstorf,21524,53.491563,10.425938,brunstorf
01,1053021,Dahmker,22946,53.587821,10.444516,dahmker
01,1053027,Elmenhorst,21493,53.544876,10.537550999999999,elmenhorst
01,1053031,Fuhlenhagen,21493,53.57303100000001,10.526645,fuhlenhagen
01,1053036,Grabau,21493,53.513608999999995,10.519825,grabau
01,1053042,Groß Pampau,21493,53.52180799999999,10.560300999999999,groß pampau
01,1053045,Grove,21493,53.528123,10.492067,grove
01,1053047,Gülzow,21483,53.442249,10.490939,gülzow
01,1053049,Hamfelde,22929,53.597193999999995,10.44893,hamfelde
01,1053052,Havekost,21493,53.539891000000004,10.472892,havekost
01,1053059,Kankelau,21514,53.549310999999996,10.56832,kankelau
01,1053060,Kasseburg,22929,53.567317,10.415258999999999,kasseburg
01,1053070,Köthel,22929,53.606936,10.510002,köthel
01,1053071,Kollow,21527,53.46315500000001,10.458799,kollow
01,1053076,Kuddewörde,22958,53.587291,10.401900999999999,kuddewörde
01,1053089,Möhnsen,21493,53.559974,10.469197,möhnsen
01,1053091,Mühlenrade,21493,53.595838,10.48775,mühlenrade
01,1053106,Sahms,21493,53.52580699999999,10.532722999999999,sahms
01,1053025,Duvensee,23898,53.693065000000004,10.568,duvensee
01,1053038,Grinau,23847,53.77553100000001,10.549747,grinau
01,1053039,Groß Boden,23847,53.752713,10.452871,groß boden
01,1053044,Groß Schenkenberg,23860,53.79349200000001,10.56488,groß schenkenberg
01,1053068,Klinkrade,23898,53.716092,10.55033,klinkrade
01,1053069,Koberg,23881,53.639593999999995,10.525960000000001,koberg
01,1053077,Kühsen,23898,53.682660999999996,10.615824,kühsen
01,1053079,Labenz,23898,53.708352000000005,10.524596,labenz
01,1053081,Lankau,23881,53.668023,10.665092,lankau
01,1053085,Linau,22959,53.643933,10.46755,linau
01,1053086,Lüchow,23898,53.690743999999995,10.529518,lüchow
01,1053096,Nusse,23896,53.65908,10.575979,nusse
01,1053097,Panten,23896,53.664570999999995,10.619769999999999,panten
01,1053099,Poggensee,23896,53.640461,10.579621000000001,poggensee
01,1053101,Ritzerau,23896,53.663003,10.567544999999999,ritzerau
01,1053108,Sandesneben,23898,53.687957,10.497042,sandesneben
01,1053109,Schiphorst,23847,53.708361,10.461627,schiphorst
01,1053112,Schönberg,22929,53.677154,10.433053999999998,schönberg
01,1053114,Schürensöhlen,23847,53.76345500000001,10.47204,schürensöhlen
01,1053118,Siebenbäumen,23847,53.749556999999996,10.525162,siebenbäumen
01,1053121,Sirksfelde,23898,53.665339,10.509773,sirksfelde
01,1053122,Steinhorst,23847,53.720135,10.483141,steinhorst
01,1053124,Stubben,23847,53.732928,10.43068,stubben
01,1053127,Walksfelde,23896,53.631901,10.575101,walksfelde
01,1053130,Wentorf (Amt Sandesneben),23898,53.67663,10.474911,wentorf (amt sandesneben)
01,1054033,Friedrichstadt,25840,54.373459999999994,9.087943,friedrichstadt
01,1054056,Husum,25813,54.476471999999994,9.050149000000001,husum
01,1054108,Reußenköge,25821,54.602245999999994,8.917982,reußenköge
01,1054138,Tönning,25832,54.319739,8.94334,tönning
01,1054168,Sylt,25980,54.89326,8.323668,sylt
01,1054035,Kirchspiel Garding,25836,54.321856000000004,8.791506,kirchspiel garding
01,1054036,Garding,25836,54.327962,8.778217,garding
01,1054040,Grothusenkoog,25836,54.302739,8.759033,grothusenkoog
01,1054063,Katharinenheerd,25836,54.335198999999996,8.828074,katharinenheerd
01,1054072,Kotzenbüll,25832,54.333778,8.907487,kotzenbüll
01,1054090,Norderfriedrichskoog,25870,54.400271,8.893583,norderfriedrichskoog
01,1054095,Oldenswort,25870,54.37228100000001,8.942989,oldenswort
01,1054100,Osterhever,25836,54.385462,8.765555,osterhever
01,1054104,Poppenbüll,25836,54.361585,8.761168,poppenbüll
01,1054113,Sankt Peter-Ording,25826,54.30228100000001,8.640495,sankt peter-ording
01,1054134,Tating,25881,54.325497,8.708511999999999,tating
01,1054135,Tetenbüll,25882,54.352013,8.828234,tetenbüll
01,1054140,Tümlauer Koog,25881,54.348337,8.689757,tümlauer koog
01,1054145,Vollerwiek,25836,54.290681000000006,8.794694,vollerwiek
01,1054148,Welt,25836,54.302402,8.79406,welt
01,1054150,Westerhever,25881,54.382315000000006,8.67563,westerhever
01,1054046,Hörnum (Sylt),25997,54.7565,8.286546000000001,hörnum (sylt)
01,1054061,Kampen (Sylt),25999,54.955507999999995,8.342294,kampen (sylt)
01,1054078,List auf Sylt,25992,55.020026,8.436183,list auf sylt
01,1054149,Wenningstedt-Braderup (Sylt),25996,54.937796999999996,8.3405,wenningstedt-braderup (sylt)
01,1054003,Ahrenviöl,25885,54.531254000000004,9.206895,ahrenviöl
01,1054004,Ahrenviölfeld,25885,54.534606999999994,9.274084,ahrenviölfeld
01,1054011,Behrendorf,25850,54.562059,9.22759,behrendorf
01,1054013,Bondelum,25850,54.556555,9.26682,bondelum
01,1054041,Haselund,25855,54.591682999999996,9.182961,haselund
01,1054057,Immenstedt,25885,54.541449,9.162503,immenstedt
01,1054079,Löwenstedt,25864,54.621612,9.174887,löwenstedt
01,1054092,Norstedt,25884,54.588429000000005,9.129313,norstedt
01,1054101,Oster-Ohrstedt,25885,54.514539,9.227445,oster-ohrstedt
01,1054118,Schwesing,25813,54.493899,9.134622,schwesing
01,1054123,Sollwitt,25884,54.594606000000006,9.228482000000001,sollwitt
01,1054144,Viöl,25884,54.568875,9.180557,viöl
01,1054152,Wester-Ohrstedt,25885,54.507226,9.190063,wester-ohrstedt
01,1054039,Gröde,25869,54.631686,8.717443,gröde
01,1054050,Hallig Hooge,25859,54.568831,8.543775,hallig hooge
01,1054074,Langeneß,25863,54.637404000000004,8.613192,langeneß
01,1054103,Pellworm,25849,54.521283999999994,8.656057,pellworm
01,1054005,Alkersum,25938,54.708245,8.511244,alkersum
01,1054015,Borgsum,25938,54.699989,8.460009,borgsum
01,1054025,Dunsum,25938,54.730715,8.414572,dunsum
01,1054083,Midlum,25938,54.714878000000006,8.518625,midlum
01,1054085,Nebel,25946,54.650612,8.353658,nebel
01,1054087,Nieblum,25938,54.691947,8.489438999999999,nieblum
01,1054089,Norddorf auf Amrum,25946,54.679638,8.332935,norddorf auf amrum
01,1054094,Oevenum,25938,54.71009300000001,8.530787,oevenum
01,1054098,Oldsum,25938,54.732075,8.447735,oldsum
01,1054129,Süderende,25938,54.725601,8.439339,süderende
01,1054143,Utersum,25938,54.71445500000001,8.407243,utersum
01,1054158,Witsum,25938,54.698516000000005,8.44106,witsum
01,1054160,Wittdün auf Amrum,25946,54.626534,8.392971000000001,wittdün auf amrum
01,1054163,Wrixum,25938,54.699417000000004,8.548131,wrixum
01,1054164,Wyk auf Föhr,25938,54.691093,8.567212,wyk auf föhr
01,1054001,Achtrup,25917,54.78898100000001,9.028319,achtrup
01,1054009,Aventoft,25927,54.901249,8.822142,aventoft
01,1054016,Bosbüll,25899,54.822786,8.860437,bosbüll
01,1054017,Braderup,25923,54.835623999999996,8.890293,braderup
01,1054018,Bramstedtlund,25926,54.851613,9.086753,bramstedtlund
01,1054022,Dagebüll,25899,54.730208999999995,8.706381,dagebüll
01,1054027,Ellhöft,25923,54.888716,8.957602,ellhöft
01,1054034,Friedrich-Wilhelm-Lübke-Koog,25924,54.862372,8.631939,friedrich-wilhelm-lübke-koog
01,1054048,Holm,25923,54.83136700000001,8.860525,holm
01,1054055,Humptrup,25923,54.863199,8.864538,humptrup
01,1054062,Karlum,25926,54.828646,8.975269,karlum
01,1054065,Klanxbüll,25924,54.864348,8.679546,klanxbüll
01,1054068,Klixbüll,25899,54.80524200000001,8.882448,klixbüll
01,1054073,Ladelund,25926,54.84075,9.025311,ladelund
01,1054076,Leck,25917,54.771914,8.974572,leck
01,1054077,Lexgaard,25923,54.832021999999995,8.943493,lexgaard
01,1054086,Neukirchen,25927,54.868905000000005,8.733880000000001,neukirchen
01,1054088,Niebüll,25899,54.788141,8.829499,niebüll
01,1054109,Risum-Lindholm,25920,54.758552,8.860833999999999,risum-lindholm
01,1054110,Rodenäs,25924,54.888387,8.70031,rodenäs
01,1054124,Sprakebüll,25917,54.775904000000004,9.077167999999999,sprakebüll
01,1054125,Stadum,25917,54.736011,9.050473,stadum
01,1054126,Stedesand,25920,54.738139000000004,8.925525,stedesand
01,1054131,Süderlügum,25923,54.872427,8.907944,süderlügum
01,1054136,Tinningstedt,25917,54.811246999999995,8.929787,tinningstedt
01,1054142,Uphusum,25923,54.841857999999995,8.84998,uphusum
01,1054154,Westre,25926,54.856605,8.987549000000001,westre
01,1054165,Galmsbüll,25899,54.76664,8.768821,galmsbüll
01,1054166,Emmelsbüll-Horsbüll,25924,54.821847999999996,8.684788000000001,emmelsbüll-horsbüll
01,1054167,Enge-Sande,25917,54.733387,8.969842,enge-sande
01,1054007,Arlewatt,25860,54.539223,9.083426,arlewatt
01,1054023,Drage,25878,54.353896999999996,9.162165,drage
01,1054026,Elisabeth-Sophien-Koog,25845,54.510068000000004,8.879592,elisabeth-sophien-koog
01,1054032,Fresendelf,25876,54.39338000000001,9.248764999999999,fresendelf
01,1054042,Hattstedt,25856,54.528074,9.024735,hattstedt
01,1054043,Hattstedtermarsch,25856,54.548738,8.975187,hattstedtermarsch
01,1054052,Horstedt,25860,54.52558199999999,9.069038,horstedt
01,1054054,Hude,25876,54.387212,9.215821,hude
01,1054070,Koldenbüttel,25840,54.385117,9.06819,koldenbüttel
01,1054084,Mildstedt,25866,54.463492,9.094038000000001,mildstedt
01,1054091,Nordstrand,25845,54.48718,8.868067,nordstrand
01,1054096,Oldersbek,25873,54.446343000000006,9.166926,oldersbek
01,1054097,Olderup,25860,54.538176,9.112117,olderup
01,1054099,Ostenfeld (Husum),25872,54.462866000000005,9.230675,ostenfeld (husum)
01,1054105,Ramstedt,25876,54.399905000000004,9.167100999999999,ramstedt
01,1054106,Rantrum,25873,54.44051999999999,9.129605999999999,rantrum
01,1054116,Schwabstedt,25876,54.395651,9.185238,schwabstedt
01,1054119,Seeth,25878,54.365930000000006,9.163158000000001,seeth
01,1054120,Simonsberg,25813,54.436645,8.972074000000001,simonsberg
01,1054130,Süderhöft,25876,54.381733999999994,9.24249,süderhöft
01,1054132,Südermarsch,25813,54.425929000000004,9.08199,südermarsch
01,1054141,Uelvesbüll,25889,54.415443,8.935322,uelvesbüll
01,1054156,Winnert,25887,54.433243000000004,9.201381,winnert
01,1054157,Wisch,25876,54.408531,9.154149,wisch
01,1054159,Wittbek,25872,54.47343299999999,9.204139,wittbek
01,1054161,Witzwort,25889,54.399483999999994,8.984464,witzwort
01,1054162,Wobbenbüll,25856,54.530418000000004,8.992516,wobbenbüll
01,1054002,Ahrenshöft,25853,54.564131999999994,9.069987,ahrenshöft
01,1054006,Almdorf,25821,54.579116000000006,9.016496,almdorf
01,1054010,Bargum,25842,54.705068999999995,8.962782,bargum
01,1054012,Bohmstedt,25853,54.581229,9.043841,bohmstedt
01,1054014,Bordelum,25852,54.635913,8.924922,bordelum
01,1054019,Bredstedt,25821,54.620073,8.960958,bredstedt
01,1054020,Breklum,25821,54.605121,8.982127,breklum
01,1054024,Drelsdorf,25853,54.605990000000006,9.041284,drelsdorf
01,1054037,Goldebek,25862,54.678836,9.145817999999998,goldebek
01,1054038,Goldelund,25862,54.678411,9.107425,goldelund
01,1054045,Högel,25858,54.643538,9.056667,högel
01,1054059,Joldelund,25862,54.652937,9.139662,joldelund
01,1054071,Kolkerheide,25862,54.62040699999999,9.130775,kolkerheide
01,1054075,Langenhorn,25842,54.67606,8.926359,langenhorn
01,1054080,Lütjenholm,25842,54.684135999999995,9.021561,lütjenholm
01,1054093,Ockholm,25842,54.665128,8.827553,ockholm
01,1054121,Sönnebüll,25821,54.631190000000004,8.995888,sönnebüll
01,1054128,Struckum,25821,54.58868199999999,8.994073,struckum
01,1054146,Vollstedt,25821,54.623717000000006,9.032722,vollstedt
01,1055001,Ahrensbök,23623,54.01109399999999,10.573058999999999,ahrensbök
01,1055004,Bad Schwartau,23611,53.92043100000001,10.695909,bad schwartau
01,1055007,Bosau,23715,54.104439,10.429901,bosau
01,1055010,Dahme,23743,54.223661,11.08163,dahme
01,1055012,Eutin,23701,54.138856000000004,10.614692,eutin
01,1055016,Grömitz,23743,54.149249,10.961101,grömitz
01,1055018,Grube,23743,54.23209,11.03599,grube
01,1055021,Heiligenhafen,23774,54.373048,10.974623,heiligenhafen
01,1055025,Kellenhusen (Ostsee),23743,54.190749,11.060024,kellenhusen (ostsee)
01,1055028,Malente,23714,54.171225,10.554871,malente
01,1055032,Neustadt in Holstein,23730,54.105630000000005,10.816351,neustadt in holstein
01,1055033,Oldenburg in Holstein,23758,54.293147999999995,10.888425999999999,oldenburg in holstein
01,1055035,Ratekau,23626,53.947821999999995,10.735075,ratekau
01,1055040,Stockelsdorf,23617,53.889315,10.649799,stockelsdorf
01,1055041,Süsel,23701,54.076679000000006,10.717998,süsel
01,1055042,Timmendorfer Strand,23669,53.995741,10.771082,timmendorfer strand
01,1055044,Scharbeutz,23683,54.02279300000001,10.750232,scharbeutz
01,1055046,Fehmarn,23769,54.478246,11.120128999999999,fehmarn
01,1055014,Göhl,23758,54.284726,10.941851,göhl
01,1055015,Gremersdorf,23758,54.332831000000006,10.927673,gremersdorf
01,1055017,Großenbrode,23775,54.369696,11.08427,großenbrode
01,1055022,Heringsdorf,23777,54.300431999999994,11.003697,heringsdorf
01,1055031,Neukirchen,23779,54.323811,11.015153,neukirchen
01,1055043,Wangels,23758,54.27156899999999,10.763598,wangels
01,1055006,Beschendorf,23738,54.182743,10.873043,beschendorf
01,1055011,Damlos,23738,54.243016000000004,10.907708,damlos
01,1055020,Harmsdorf,23738,54.243561,10.828832,harmsdorf
01,1055023,Kabelhorst,23738,54.215844,10.921118,kabelhorst
01,1055027,Lensahn,23738,54.217544999999994,10.883303999999999,lensahn
01,1055029,Manhagen,23738,54.194998999999996,10.913686,manhagen
01,1055036,Riepsdorf,23738,54.225359999999995,10.969732,riepsdorf
01,1055002,Altenkrempe,23730,54.13298,10.825664999999999,altenkrempe
01,1055024,Kasseedorf,23717,54.164965,10.719867,kasseedorf
01,1055037,Schashagen,23730,54.134271,10.883528,schashagen
01,1055038,Schönwalde am Bungsberg,23744,54.187360999999996,10.753453,schönwalde am bungsberg
01,1055039,Sierksdorf,23730,54.066261,10.768366,sierksdorf
01,1056002,Barmstedt,25355,53.790385,9.768595,barmstedt
01,1056005,Bönningstedt,25474,53.662388,9.906377,bönningstedt
01,1056015,Elmshorn,25335,53.754957999999995,9.655259,elmshorn
01,1056018,Halstenbek,25469,53.633617,9.837557,halstenbek
01,1056021,Hasloh,25474,53.694023,9.91173,hasloh
01,1056025,Helgoland,27498,54.181505,7.889064,helgoland
01,1056039,Pinneberg,25421,53.660754000000004,9.793233,pinneberg
01,1056041,Quickborn,25451,53.728836,9.898033999999999,quickborn
01,1056043,Rellingen,25462,53.652131000000004,9.829654,rellingen
01,1056044,Schenefeld,22869,53.600981999999995,9.822462,schenefeld
01,1056048,Tornesch,25436,53.698257,9.718707,tornesch
01,1056049,Uetersen,25436,53.68419599999999,9.662396000000001,uetersen
01,1056050,Wedel,22880,53.577353,9.705419000000001,wedel
01,1056029,Klein Nordende,25336,53.71956899999999,9.654218,klein nordende
01,1056030,Klein Offenseth-Sparrieshoop,25365,53.804947999999996,9.690397,klein offenseth-sparrieshoop
01,1056031,Kölln-Reisiek,25337,53.759232,9.70509,kölln-reisiek
01,1056033,Seester,25370,53.717709,9.598071000000001,seester
01,1056042,Raa-Besenbek,25335,53.747963,9.597611,raa-besenbek
01,1056045,Seestermühe,25371,53.704049,9.56628,seestermühe
01,1056046,Seeth-Ekholt,25337,53.736948,9.733303999999999,seeth-ekholt
01,1056019,Haselau,25489,53.660647,9.623636,haselau
01,1056020,Haseldorf,25489,53.635206999999994,9.598383,haseldorf
01,1056027,Hetlingen,25491,53.607668999999994,9.635425,hetlingen
01,1056006,Bokel,25364,53.864194,9.733886,bokel
01,1056010,Brande-Hörnerkirchen,25364,53.853496,9.714072999999999,brande-hörnerkirchen
01,1056038,Osterhorn,25364,53.868679,9.698588,osterhorn
01,1056051,Westerhorn,25364,53.85784399999999,9.682011,westerhorn
01,1056001,Appen,25482,53.659806,9.742706,appen
01,1056016,Groß Nordende,25436,53.70206999999999,9.649515,groß nordende
01,1056023,Heidgraben,25436,53.708552000000005,9.680783,heidgraben
01,1056024,Heist,25492,53.654818999999996,9.656576,heist
01,1056028,Holm,25488,53.622062,9.671854,holm
01,1056036,Moorrege,25436,53.668054000000005,9.659074,moorrege
01,1056037,Neuendeich,25436,53.676281,9.600258,neuendeich
01,1056003,Bevern,25355,53.75571899999999,9.771042,bevern
01,1056004,Bilsen,25485,53.769901000000004,9.87625,bilsen
01,1056008,Bokholt-Hanredder,25335,53.781752000000004,9.727312,bokholt-hanredder
01,1056011,Bullenkuhlen,25355,53.768586,9.751552,bullenkuhlen
01,1056014,Ellerhoop,25373,53.727623,9.770845,ellerhoop
01,1056017,Groß Offenseth-Aspern,25355,53.818041,9.73192,groß offenseth-aspern
01,1056022,Heede,25355,53.783499,9.802298,heede
01,1056026,Hemdingen,25485,53.755233999999994,9.836641,hemdingen
01,1056034,Langeln,25485,53.79393,9.853797,langeln
01,1056035,Lutzhorn,25355,53.825517000000005,9.776786999999999,lutzhorn
01,1056009,Borstel-Hohenraden,25494,53.689503,9.820331,borstel-hohenraden
01,1056013,Ellerbek,25474,53.657165,9.869465,ellerbek
01,1056032,Kummerfeld,25495,53.691612,9.791036,kummerfeld
01,1056040,Prisdorf,25497,53.678151,9.761607000000001,prisdorf
01,1056047,Tangstedt,25499,53.679247,9.849699000000001,tangstedt
01,1057001,Ascheberg (Holstein),24326,54.151075,10.341108,ascheberg (holstein)
01,1057008,Bönebüttel,24620,54.079505000000005,10.0593,bönebüttel
01,1057009,Bösdorf,24306,54.14153,10.490762,bösdorf
01,1057057,Plön,24306,54.158288,10.416369,plön
01,1057062,Preetz,24211,54.231866000000004,10.280512,preetz
01,1057091,Schwentinental,24223,54.292024,10.232251,schwentinental
01,1057004,Behrensdorf (Ostsee),24321,54.346515000000004,10.603736,behrensdorf (ostsee)
01,1057007,Blekendorf,24327,54.276458999999996,10.650894000000001,blekendorf
01,1057013,Dannau,24329,54.240905000000005,10.541132000000001,dannau
01,1057021,Giekau,24321,54.317441,10.506159,giekau
01,1057026,Helmstorf,24321,54.286643999999995,10.593478,helmstorf
01,1057027,Högsdorf,24327,54.251993999999996,10.615055,högsdorf
01,1057029,Hohenfelde,24257,54.370898,10.496402,hohenfelde
01,1057030,Hohwacht (Ostsee),24321,54.320921999999996,10.67371,hohwacht (ostsee)
01,1057034,Kirchnüchel,23714,54.20411,10.680133999999999,kirchnüchel
01,1057035,Klamp,24321,54.296417000000005,10.534124,klamp
01,1057038,Kletkamp,24327,54.249088,10.638094,kletkamp
01,1057048,Lütjenburg,24321,54.294852,10.592236999999999,lütjenburg
01,1057055,Panker,24321,54.33034,10.573095,panker
01,1057076,Schwartbuck,24257,54.358264,10.478063,schwartbuck
01,1057082,Tröndel,24321,54.342356,10.514076,tröndel
01,1057015,Dersau,24326,54.118055000000005,10.335939999999999,dersau
01,1057017,Dörnick,24326,54.163392,10.360375,dörnick
01,1057022,Grebin,24329,54.19593199999999,10.494272,grebin
01,1057032,Kalübbe,24326,54.118145999999996,10.283107000000001,kalübbe
01,1057045,Lebrade,24306,54.216652,10.422164,lebrade
01,1057053,Nehmten,24326,54.094848,10.393262,nehmten
01,1057065,Rantzau,24329,54.253868999999995,10.507361,rantzau
01,1057067,Rathjensdorf,24306,54.185702,10.427748,rathjensdorf
01,1057089,Wittmoldt,24306,54.174882,10.349133,wittmoldt
01,1057002,Barmissen,24245,54.204995,10.175384,barmissen
01,1057010,Boksee,24220,54.242982,10.127708,boksee
01,1057011,Bothkamp,24250,54.20335600000001,10.134422,bothkamp
01,1057023,Großbarkau,24245,54.225363,10.169008,großbarkau
01,1057031,Honigsee,24211,54.228283,10.187224,honigsee
01,1057033,Kirchbarkau,24245,54.211515000000006,10.142365,kirchbarkau
01,1057037,Klein Barkau,24245,54.222719,10.135269000000001,klein barkau
01,1057042,Kühren,24211,54.198376,10.258367,kühren
01,1057046,Lehmkuhlen,24211,54.226974,10.360709,lehmkuhlen
01,1057047,Löptin,24250,54.175217,10.215744,löptin
01,1057054,Nettelsee,24250,54.174112,10.189086,nettelsee
01,1057058,Pohnsdorf,24211,54.239647,10.249321,pohnsdorf
01,1057059,Postfeld,24211,54.211309,10.21641,postfeld
01,1057066,Rastorf,24211,54.272603000000004,10.289064,rastorf
01,1057070,Schellhorn,24211,54.227596999999996,10.299476,schellhorn
01,1057084,Wahlstorf,24211,54.178082999999994,10.294716000000001,wahlstorf
01,1057086,Warnau,24250,54.18792,10.160153999999999,warnau
01,1057003,Barsbek,24217,54.404132,10.320134,barsbek
01,1057006,Bendfeld,24217,54.36415699999999,10.419437,bendfeld
01,1057012,Brodersdorf,24235,54.385481000000006,10.249253999999999,brodersdorf
01,1057018,Fahren,24253,54.349552,10.33813,fahren
01,1057020,Fiefbergen,24217,54.379311,10.34277,fiefbergen
01,1057028,Höhndorf,24217,54.37261899999999,10.370674000000001,höhndorf
01,1057039,Köhn,24257,54.344440000000006,10.455111,köhn
01,1057040,Krokau,24217,54.402446,10.341593,krokau
01,1057041,Krummbek,24217,54.37814,10.400708999999999,krummbek
01,1057043,Laboe,24235,54.404031,10.224323,laboe
01,1057049,Lutterbek,24235,54.391952,10.276816,lutterbek
01,1057056,Passade,24253,54.366581000000004,10.316786,passade
01,1057060,Prasdorf,24253,54.378679000000005,10.296264,prasdorf
01,1057063,Probsteierhagen,24253,54.362604000000005,10.288376,probsteierhagen
01,1057073,Schönberg (Holstein),24217,54.39239,10.372475999999999,schönberg (holstein)
01,1057078,Stakendorf,24217,54.388445,10.422791,stakendorf
01,1057079,Stein,24235,54.41465899999999,10.268846,stein
01,1057081,Stoltenberg,24256,54.344758999999996,10.346508,stoltenberg
01,1057087,Wendtorf,24235,54.409817000000004,10.292375999999999,wendtorf
01,1057088,Wisch,24217,54.411032999999996,10.344244999999999,wisch
01,1057016,Dobersdorf,24232,54.318490000000004,10.281513,dobersdorf
01,1057044,Lammershagen,24238,54.274508999999995,10.443923,lammershagen
01,1057050,Martensrade,24238,54.279612,10.392528,martensrade
01,1057052,Mucheln,24238,54.246421,10.442687,mucheln
01,1057072,Schlesen,24256,54.321543999999996,10.328605,schlesen
01,1057077,Selent,24238,54.290473,10.425868,selent
01,1057090,Fargau-Pratjau,24256,54.327553,10.396264,fargau-pratjau
01,1057025,Heikendorf,24226,54.371303000000005,10.207125999999999,heikendorf
01,1057051,Mönkeberg,24226,54.34811800000001,10.187105,mönkeberg
01,1057074,Schönkirchen,24226,54.33653100000001,10.223696,schönkirchen
01,1057005,Belau,24601,54.09754399999999,10.259724,belau
01,1057024,Großharrie,24625,54.119087,10.049861,großharrie
01,1057068,Rendswühren,24619,54.074276,10.179739999999999,rendswühren
01,1057069,Ruhwinkel,24601,54.094216,10.221822999999999,ruhwinkel
01,1057071,Schillsdorf,24637,54.116231000000006,10.123873,schillsdorf
01,1057080,Stolpe,24601,54.128910999999995,10.222608000000001,stolpe
01,1057083,Tasdorf,24536,54.095659,10.031296000000001,tasdorf
01,1057085,Wankendorf,24601,54.112811,10.208038,wankendorf
01,1058005,Altenholz,24161,54.402998,10.120656,altenholz
01,1058034,Büdelsdorf,24782,54.315687,9.677817,büdelsdorf
01,1058043,Eckernförde,24340,54.472791,9.837036999999999,eckernförde
01,1058092,Kronshagen,24119,54.332198999999996,10.076635000000001,kronshagen
01,1058135,Rendsburg,24768,54.306495,9.663206,rendsburg
01,1058169,Wasbek,24647,54.071419999999996,9.895541,wasbek
01,1058001,Achterwehr,24239,54.313379000000005,9.965760000000001,achterwehr
01,1058028,Bredenbek,24796,54.324946,9.871053999999999,bredenbek
01,1058050,Felde,24242,54.3016,9.935309,felde
01,1058093,Krummwisch,24796,54.335159,9.897592999999999,krummwisch
01,1058104,Melsdorf,24109,54.317289,10.029817,melsdorf
01,1058126,Ottendorf,24107,54.340275,10.044532,ottendorf
01,1058130,Quarnbek,24107,54.330011999999996,9.983912,quarnbek
01,1058171,Westensee,24259,54.274997,9.897116,westensee
01,1058037,Dänischenhagen,24229,54.426044,10.129567,dänischenhagen
01,1058116,Noer,24214,54.461333999999994,10.005044999999999,noer
01,1058150,Schwedeneck,24229,54.458476,10.069039,schwedeneck
01,1058157,Strande,24229,54.440909,10.170978999999999,strande
01,1058051,Felm,24244,54.409603000000004,10.061496,felm
01,1058058,Gettorf,24214,54.407579000000005,9.973683,gettorf
01,1058096,Lindau,24214,54.385149,9.904583,lindau
01,1058110,Neudorf-Bornstein,24214,54.425599,9.934569,neudorf-bornstein
01,1058112,Neuwittenbek,24214,54.367895999999995,10.028294,neuwittenbek
01,1058121,Osdorf,24251,54.42795600000001,10.015654,osdorf
01,1058142,Schinkel,24214,54.355838,9.954902,schinkel
01,1058165,Tüttendorf,24214,54.392146,9.993457000000001,tüttendorf
01,1058019,Böhnhusen,24220,54.221123,10.068211,böhnhusen
01,1058053,Flintbek,24220,54.253235,10.083774,flintbek
01,1058145,Schönhorst,24220,54.225471,10.104166000000001,schönhorst
01,1058160,Techelsdorf,24220,54.214206999999995,10.047182000000001,techelsdorf
01,1058003,Alt Duvenstedt,24791,54.359629000000005,9.645213,alt duvenstedt
01,1058054,Fockbek,24787,54.304425,9.601367999999999,fockbek
01,1058118,Nübbel,24809,54.272619999999996,9.621871,nübbel
01,1058136,Rickert,24782,54.333615,9.669085,rickert
01,1058010,Bargstall,24806,54.260388,9.46575,bargstall
01,1058029,Breiholz,24797,54.206137,9.521979,breiholz
01,1058036,Christiansholm,24799,54.320498,9.405402,christiansholm
01,1058047,Elsdorf-Westermühlen,24800,54.260728,9.517318,elsdorf-westermühlen
01,1058055,Friedrichsgraben,24799,54.272305,9.419087,friedrichsgraben
01,1058056,Friedrichsholm,24799,54.303024,9.427267,friedrichsholm
01,1058070,Hamdorf,24805,54.225554,9.518657000000001,hamdorf
01,1058078,Hohn,24806,54.29872099999999,9.503416,hohn
01,1058089,Königshügel,24799,54.334880000000005,9.474274000000001,königshügel
01,1058097,Lohe-Föhrden,24806,54.33615,9.522078,lohe-föhrden
01,1058129,Prinzenmoor,24805,54.217427,9.454146000000001,prinzenmoor
01,1058154,Sophienhamm,24806,54.270233999999995,9.461024,sophienhamm
01,1058031,Brinjahe,24816,54.168528,9.632102,brinjahe
01,1058048,Embühren,24819,54.170602,9.591436,embühren
01,1058068,Haale,24819,54.17425600000001,9.548925,haale
01,1058071,Hamweddel,24816,54.190502,9.618872999999999,hamweddel
01,1058075,Hörsten,24797,54.226932,9.578749,hörsten
01,1058086,Jevenstedt,24808,54.234604000000004,9.668849,jevenstedt
01,1058101,Luhnstedt,24816,54.167176,9.698753,luhnstedt
01,1058148,Schülp b. Rendsburg,24813,54.25931800000001,9.629244,schülp b. rendsburg
01,1058155,Stafstedt,24816,54.170705000000005,9.66287,stafstedt
01,1058172,Westerrönfeld,24784,54.280365,9.646005,westerrönfeld
01,1058018,Blumenthal,24241,54.226064,10.003257000000001,blumenthal
01,1058105,Mielkendorf,24247,54.284565,10.040778999999999,mielkendorf
01,1058107,Molfsee,24113,54.263397,10.064933,molfsee
01,1058138,Rodenbek,24247,54.27665699999999,10.01972,rodenbek
01,1058139,Rumohr,24254,54.255177,10.024676,rumohr
01,1058141,Schierensee,24241,54.256838,9.983332,schierensee
01,1058011,Bargstedt,24793,54.16243299999999,9.769024,bargstedt
01,1058021,Bokel,24802,54.215588000000004,9.794093,bokel
01,1058023,Borgdorf-Seedorf,24589,54.175681999999995,9.890360000000001,borgdorf-seedorf
01,1058027,Brammer,24793,54.200192,9.765228,brammer
01,1058038,Dätgen,24589,54.181105,9.934284,dätgen
01,1058045,Eisendorf,24589,54.193403,9.869129,eisendorf
01,1058046,Ellerdorf,24589,54.194754,9.838495,ellerdorf
01,1058049,Emkendorf,24802,54.262330000000006,9.853171000000001,emkendorf
01,1058059,Gnutz,24622,54.13533,9.823514999999999,gnutz
01,1058065,Groß Vollstedt,24802,54.234713,9.867712,groß vollstedt
01,1058091,Krogaspe,24644,54.131572999999996,9.929382,krogaspe
01,1058094,Langwedel,24631,54.211725,9.931599,langwedel
01,1058117,Nortorf,24589,54.16723,9.855952,nortorf
01,1058120,Oldenhütten,24793,54.15809599999999,9.740452000000001,oldenhütten
01,1058147,Schülp b. Nortorf,24589,54.16364300000001,9.885618,schülp b. nortorf
01,1058163,Timmaspe,24644,54.140848999999996,9.890944000000001,timmaspe
01,1058168,Warder,24646,54.213803000000006,9.886711,warder
01,1058026,Bovenau,24796,54.330579,9.829983,bovenau
01,1058073,Haßmoor,24790,54.292253,9.820925,haßmoor
01,1058122,Ostenfeld (Rendsburg),24790,54.314519999999995,9.785113,ostenfeld (rendsburg)
01,1058124,Osterrönfeld,24783,54.292151000000004,9.697439,osterrönfeld
01,1058132,Rade b. Rendsburg,24790,54.331428,9.745224,rade b. rendsburg
01,1058140,Schacht-Audorf,24783,54.313528000000005,9.718033,schacht-audorf
01,1058146,Schülldorf,24790,54.300343999999996,9.729265,schülldorf
01,1058016,Bissee,24582,54.190703000000006,10.110472999999999,bissee
01,1058022,Bordesholm,24582,54.175613,10.026065,bordesholm
01,1058033,Brügge,24582,54.174356,10.071067,brügge
01,1058063,Grevenkrug,24241,54.212982,10.01044,grevenkrug
01,1058064,Groß Buchwald,24582,54.162946999999996,10.085963000000001,groß buchwald
01,1058076,Hoffeld,24582,54.188849,9.98061,hoffeld
01,1058098,Loop,24644,54.147998,9.949175,loop
01,1058108,Mühbrook,24582,54.157143000000005,10.010108,mühbrook
01,1058109,Negenharrie,24625,54.14359399999999,10.075273,negenharrie
01,1058133,Reesdorf,24241,54.190474,10.06034,reesdorf
01,1058143,Schmalstede,24241,54.19323000000001,10.030205,schmalstede
01,1058144,Schönbek,24582,54.16273100000001,9.975522,schönbek
01,1058153,Sören,24241,54.202743999999996,9.998885000000001,sören
01,1058170,Wattenbek,24582,54.171228,10.054689999999999,wattenbek
01,1058008,Ascheffel,24358,54.430870999999996,9.69823,ascheffel
01,1058024,Borgstedt,24794,54.33299,9.710011999999999,borgstedt
01,1058030,Brekendorf,24811,54.42068100000001,9.630366,brekendorf
01,1058035,Bünsdorf,24794,54.369536,9.742569999999999,bünsdorf
01,1058039,Damendorf,24361,54.423533,9.735273,damendorf
01,1058066,Groß Wittensee,24361,54.40460600000001,9.769945,groß wittensee
01,1058069,Haby,24361,54.395389,9.822077,haby
01,1058080,Holtsee,24363,54.39873000000001,9.854754,holtsee
01,1058081,Holzbunge,24361,54.377747,9.705374,holzbunge
01,1058083,Hütten,24358,54.437115000000006,9.717519,hütten
01,1058088,Klein Wittensee,24361,54.390390000000004,9.73311,klein wittensee
01,1058111,Neu Duvenstedt,24794,54.355476,9.697639,neu duvenstedt
01,1058123,Osterby,24367,54.453261,9.753799,osterby
01,1058127,Owschlag,24848,54.391387,9.598839,owschlag
01,1058152,Sehestedt,24814,54.366001000000004,9.818375,sehestedt
01,1058175,Ahlefeld-Bistensee,24358,54.403923999999996,9.691856,ahlefeld-bistensee
01,1058004,Altenhof,24340,54.43474499999999,9.875233999999999,altenhof
01,1058012,Barkelsby,24360,54.501518000000004,9.839569000000001,barkelsby
01,1058032,Brodersby,24398,54.634629000000004,9.979854,brodersby
01,1058040,Damp,24351,54.578215,9.984161,damp
01,1058042,Dörphof,24398,54.614129000000005,9.971894,dörphof
01,1058052,Fleckeby,24357,54.482319999999994,9.696337,fleckeby
01,1058057,Gammelby,24340,54.500342,9.793238,gammelby
01,1058067,Güby,24357,54.485952000000005,9.666683,güby
01,1058082,Holzdorf,24364,54.554372,9.896958999999999,holzdorf
01,1058084,Hummelfeld,24357,54.461884,9.718396,hummelfeld
01,1058087,Karby,24398,54.62305799999999,9.974822,karby
01,1058090,Kosel,24354,54.505334999999995,9.754483,kosel
01,1058099,Loose,24366,54.519594999999995,9.889147999999999,loose
01,1058102,Goosefeld,24340,54.429737,9.815036,goosefeld
01,1058137,Rieseby,24354,54.541709,9.812994999999999,rieseby
01,1058162,Thumby,24351,54.585574,9.910273,thumby
01,1058166,Waabs,24369,54.526748,9.983282,waabs
01,1058173,Windeby,24340,54.454793,9.796901,windeby
01,1058174,Winnemark,24398,54.615885999999996,9.922134,winnemark
01,1058007,Arpsdorf,24634,54.039244999999994,9.858986,arpsdorf
01,1058009,Aukrug,24613,54.07706700000001,9.792413999999999,aukrug
01,1058013,Beldorf,25557,54.133279,9.352138,beldorf
01,1058014,Bendorf,25557,54.087214,9.382283000000001,bendorf
01,1058015,Beringstedt,25575,54.110562,9.534981,beringstedt
01,1058025,Bornholt,25557,54.101696999999994,9.335478,bornholt
01,1058044,Ehndorf,24647,54.05327,9.893993,ehndorf
01,1058061,Gokels,25557,54.112001,9.468744000000001,gokels
01,1058062,Grauel,24594,54.070198,9.674147,grauel
01,1058072,Hanerau-Hademarschen,25557,54.127368999999995,9.412577,hanerau-hademarschen
01,1058074,Heinkenborstel,24594,54.130804000000005,9.75104,heinkenborstel
01,1058077,Hohenwestedt,24594,54.09089399999999,9.651582000000001,hohenwestedt
01,1058085,Jahrsdorf,24594,54.065681999999995,9.631936999999999,jahrsdorf
01,1058100,Lütjenwestedt,25585,54.140616,9.490806,lütjenwestedt
01,1058103,Meezen,24594,54.05163,9.709777,meezen
01,1058106,Mörel,24594,54.113808999999996,9.728528,mörel
01,1058113,Nienborstel,24819,54.136911,9.613481,nienborstel
01,1058115,Nindorf,24594,54.131914,9.699683,nindorf
01,1058119,Oldenbüttel,25557,54.168952000000004,9.452474,oldenbüttel
01,1058125,Osterstedt,25590,54.111751,9.574606,osterstedt
01,1058128,Padenstedt,24634,54.04894399999999,9.917284,padenstedt
01,1058131,Rade b. Hohenwestedt,24594,54.101217000000005,9.721127000000001,rade b. hohenwestedt
01,1058134,Remmels,24594,54.116583999999996,9.652041,remmels
01,1058151,Seefeld,25557,54.101581,9.492849,seefeld
01,1058156,Steenfeld,25557,54.142655000000005,9.379822,steenfeld
01,1058158,Tackesdorf,25585,54.175661,9.481917999999999,tackesdorf
01,1058159,Tappendorf,24594,54.104212,9.693517,tappendorf
01,1058161,Thaden,25557,54.10329399999999,9.422414,thaden
01,1058164,Todenbüttel,24819,54.129824,9.555715,todenbüttel
01,1058167,Wapelfeld,24594,54.08290699999999,9.604521,wapelfeld
01,1059045,Kappeln,24376,54.659144,9.931158,kappeln
01,1059075,Schleswig,24837,54.514941,9.566657000000001,schleswig
01,1059113,Glücksburg (Ostsee),24960,54.83685799999999,9.550997,glücksburg (ostsee)
01,1059120,Harrislee,24955,54.80428199999999,9.382916999999999,harrislee
01,1059183,Handewitt,24983,54.765104,9.324639,handewitt
01,1059107,Eggebek,24852,54.619737,9.372178,eggebek
01,1059128,Janneby,24992,54.625601,9.300481,janneby
01,1059131,Jerrishoe,24963,54.657215,9.371801,jerrishoe
01,1059132,Jörl,24992,54.61018000000001,9.278088,jörl
01,1059138,Langstedt,24852,54.616941000000004,9.385397,langstedt
01,1059162,Sollerup,24852,54.572956999999995,9.320146000000001,sollerup
01,1059169,Süderhackstedt,24852,54.592318000000006,9.289498,süderhackstedt
01,1059174,Wanderup,24997,54.68849,9.331464,wanderup
01,1059012,Borgwedel,24857,54.500271999999995,9.666805,borgwedel
01,1059018,Busdorf,24866,54.493339,9.553156,busdorf
01,1059019,Dannewerk,24867,54.479726,9.498016,dannewerk
01,1059026,Fahrdorf,24857,54.504653000000005,9.599017,fahrdorf
01,1059032,Geltorf,24884,54.46324,9.612616000000001,geltorf
01,1059043,Jagel,24878,54.457148,9.537499,jagel
01,1059056,Lottorf,24878,54.45024,9.57292,lottorf
01,1059078,Selk,24884,54.468864,9.583539,selk
01,1059101,Tastrup,24943,54.765066000000004,9.477121,tastrup
01,1059103,Ausacker,24975,54.73908,9.574858,ausacker
01,1059116,Großsolt,24991,54.699352000000005,9.513444,großsolt
01,1059126,Hürup,24975,54.748128,9.529425999999999,hürup
01,1059127,Husby,24975,54.765195999999996,9.577321000000001,husby
01,1059141,Maasbüll,24975,54.778197,9.522839,maasbüll
01,1059182,Freienwill,24991,54.728589,9.492436,freienwill
01,1059002,Arnis,24399,54.630563,9.932332,arnis
01,1059034,Grödersby,24376,54.637617000000006,9.91842,grödersby
01,1059067,Oersberg,24407,54.67461899999999,9.842046,oersberg
01,1059068,Rabenkirchen-Faulück,24407,54.645176,9.862726,rabenkirchen-faulück
01,1059106,Dollerup,24989,54.776063,9.680759,dollerup
01,1059118,Grundhof,24977,54.773325,9.654546,grundhof
01,1059137,Langballig,24977,54.79939399999999,9.637034,langballig
01,1059145,Munkbrarup,24960,54.8032,9.561132,munkbrarup
01,1059157,Ringsberg,24977,54.807139,9.598332000000001,ringsberg
01,1059176,Wees,24999,54.807217,9.52256,wees
01,1059178,Westerholz,24977,54.817328,9.668774,westerholz
01,1059159,Sieverstedt,24885,54.642784,9.474638,sieverstedt
01,1059171,Tarp,24963,54.664106999999994,9.403428,tarp
01,1059184,Oeversee,24988,54.702847999999996,9.433082,oeversee
01,1059076,Schnarup-Thumby,24891,54.648513,9.6497,schnarup-thumby
01,1059161,Sörup,24966,54.717901,9.668561,sörup
01,1059185,Mittelangeln,24986,54.683238,9.593828,mittelangeln
01,1059105,Böxlund,24994,54.840228,9.180686999999999,böxlund
01,1059115,Großenwiehe,24969,54.712880000000006,9.252522,großenwiehe
01,1059123,Hörup,24980,54.740637,9.103759,hörup
01,1059124,Holt,24994,54.810764,9.147231,holt
01,1059129,Jardelund,24994,54.82508000000001,9.201196000000001,jardelund
01,1059143,Medelby,24994,54.812746999999995,9.172824,medelby
01,1059144,Meyn,24980,54.757551,9.223618,meyn
01,1059149,Nordhackstedt,24980,54.7334,9.167000999999999,nordhackstedt
01,1059151,Osterby,24994,54.797444999999996,9.21072,osterby
01,1059158,Schafflund,24980,54.759438,9.184281,schafflund
01,1059173,Wallsbüll,24980,54.774478,9.23803,wallsbüll
01,1059177,Weesby,24994,54.829731,9.152975,weesby
01,1059179,Lindewitt,24969,54.697924,9.196859,lindewitt
01,1059006,Böel,24401,54.647752000000004,9.72216,böel
01,1059014,Brebel,24392,54.634527,9.736844,brebel
01,1059021,Dollrottfeld,24392,54.642499,9.808714,dollrottfeld
01,1059055,Loit,24888,54.611321999999994,9.699558999999999,loit
01,1059060,Mohrkirch,24405,54.67755,9.706676,mohrkirch
01,1059063,Norderbrarup,24392,54.655735,9.768542,norderbrarup
01,1059065,Nottfeld,24392,54.618666000000005,9.768634,nottfeld
01,1059070,Rügge,24405,54.689422,9.761241,rügge
01,1059072,Saustrup,24392,54.671983,9.772102,saustrup
01,1059074,Scheggerott,24392,54.667579,9.821294,scheggerott
01,1059080,Steinfeld,24888,54.598383999999996,9.743805,steinfeld
01,1059083,Süderbrarup,24392,54.635615,9.77543,süderbrarup
01,1059094,Ulsnis,24897,54.56921,9.747452000000001,ulsnis
01,1059095,Wagersrott,24392,54.665441,9.79451,wagersrott
01,1059187,Boren,24392,54.614506000000006,9.820225,boren
01,1059008,Böklund,24860,54.603487,9.583662,böklund
01,1059016,Brodersby,24864,54.538183,9.714558,brodersby
01,1059033,Goltoft,24864,54.54752,9.72206,goltoft
01,1059037,Havetoft,24873,54.649421999999994,9.516189,havetoft
01,1059042,Idstedt,24879,54.582202,9.511808,idstedt
01,1059049,Klappholz,24860,54.621370999999996,9.539317,klappholz
01,1059062,Neuberend,24879,54.555268000000005,9.525188,neuberend
01,1059073,Schaalby,24882,54.549079000000006,9.63988,schaalby
01,1059081,Stolk,24890,54.598571,9.541623,stolk
01,1059082,Struxdorf,24891,54.632416000000006,9.638539999999999,struxdorf
01,1059084,Süderfahrenstedt,24890,54.585386,9.584252000000001,süderfahrenstedt
01,1059086,Taarstedt,24893,54.567229000000005,9.688728,taarstedt
01,1059090,Tolk,24894,54.578772,9.639368,tolk
01,1059093,Uelsby,24860,54.631280000000004,9.596649000000001,uelsby
01,1059097,Twedt,24894,54.597882999999996,9.676062,twedt
01,1059098,Nübel,24881,54.563867,9.583971,nübel
01,1059102,Ahneby,24996,54.701420999999996,9.730965,ahneby
01,1059109,Esgrus,24402,54.723422,9.782169,esgrus
01,1059112,Gelting,24395,54.746311999999996,9.89717,gelting
01,1059121,Hasselberg,24376,54.715121999999994,9.977352999999999,hasselberg
01,1059136,Kronsgaard,24395,54.732023999999996,9.965003,kronsgaard
01,1059142,Maasholm,24404,54.684233,9.990992,maasholm
01,1059147,Nieby,24395,54.771513,9.936705,nieby
01,1059148,Niesgrau,24395,54.744062,9.81269,niesgrau
01,1059152,Pommerby,24395,54.756629000000004,9.937539,pommerby
01,1059154,Rabel,24376,54.690305,9.949197999999999,rabel
01,1059155,Rabenholz,24395,54.722168,9.902241,rabenholz
01,1059163,Stangheck,24395,54.712702,9.860273,stangheck
01,1059164,Steinberg,24972,54.755993999999994,9.782278999999999,steinberg
01,1059167,Sterup,24996,54.727837,9.738908,sterup
01,1059168,Stoltebüll,24409,54.700688,9.878988,stoltebüll
01,1059186,Steinbergkirche,24972,54.7544,9.759969,steinbergkirche
01,1059010,Bollingstedt,24855,54.592884999999995,9.412302,bollingstedt
01,1059023,Ellingstedt,24870,54.47773299999999,9.409623,ellingstedt
01,1059039,Hollingstedt,24876,54.455932,9.336606,hollingstedt
01,1059041,Hüsby,24850,54.496334999999995,9.484548,hüsby
01,1059044,Jübek,24855,54.55668000000001,9.394391,jübek
01,1059057,Lürschau,24850,54.53863199999999,9.496358,lürschau
01,1059077,Schuby,24850,54.51517,9.480215,schuby
01,1059079,Silberstedt,24887,54.51859399999999,9.370766,silberstedt
01,1059092,Treia,24896,54.518494,9.316618,treia
01,1059001,Alt Bennebek,24848,54.377641000000004,9.431246,alt bennebek
01,1059005,Bergenhusen,24861,54.376351,9.316107,bergenhusen
01,1059009,Börm,24863,54.4033,9.378249,börm
01,1059020,Dörpstedt,24869,54.434054,9.362474,dörpstedt
01,1059024,Erfde,24803,54.308546,9.317127000000001,erfde
01,1059035,Groß Rheide,24848,54.441210999999996,9.438091,groß rheide
01,1059050,Klein Bennebek,24848,54.401996999999994,9.456571,klein bennebek
01,1059051,Klein Rheide,24848,54.449512,9.476383,klein rheide
01,1059053,Kropp,24848,54.411198999999996,9.508668,kropp
01,1059058,Meggerdorf,24799,54.347483,9.39829,meggerdorf
01,1059064,Norderstapel,25868,54.360881000000006,9.244945,norderstapel
01,1059085,Süderstapel,25879,54.349368000000005,9.218997,süderstapel
01,1059087,Tetenhusen,24817,54.349121,9.494238000000001,tetenhusen
01,1059088,Tielen,24803,54.28564300000001,9.334919000000001,tielen
01,1059096,Wohlde,24899,54.404782,9.294744999999999,wohlde
01,1060004,Bad Bramstedt,24576,53.918792,9.882114999999999,bad bramstedt
01,1060005,Bad Segeberg,23795,53.937059,10.304193,bad segeberg
01,1060019,Ellerau,25479,53.752683,9.917553,ellerau
01,1060039,Henstedt-Ulzburg,24558,53.783923,9.991924000000001,henstedt-ulzburg
01,1060044,Kaltenkirchen,24568,53.83825699999999,9.959311,kaltenkirchen
01,1060063,Norderstedt,22846,53.695736,9.983634,norderstedt
01,1060092,Wahlstedt,23812,53.952343000000006,10.214464,wahlstedt
01,1060003,Armstedt,24616,53.971225,9.847056,armstedt
01,1060009,Bimöhlen,24576,53.935914000000004,9.953588,bimöhlen
01,1060013,Borstel,24616,53.969545,9.79743,borstel
01,1060021,Föhrden-Barl,25563,53.927492,9.787122,föhrden-barl
01,1060023,Fuhlendorf,24649,53.943215,9.885482000000001,fuhlendorf
01,1060027,Großenaspe,24623,53.976025,9.966826,großenaspe
01,1060031,Hagen,24576,53.946622,9.826977000000001,hagen
01,1060033,Hardebek,24616,53.988376,9.868731,hardebek
01,1060035,Hasenkrug,24616,53.985063000000004,9.849789,hasenkrug
01,1060037,Heidmoor,24632,53.864464,9.819023,heidmoor
01,1060040,Hitzhusen,24576,53.923021999999996,9.85186,hitzhusen
01,1060056,Mönkloh,24576,53.888087,9.787844,mönkloh
01,1060095,Weddelbrook,24576,53.904106000000006,9.830237,weddelbrook
01,1060099,Wiemersdorf,24649,53.95794,9.904539999999999,wiemersdorf
01,1060012,Bornhöved,24619,54.068565,10.225454,bornhöved
01,1060017,Damsdorf,23824,54.064498,10.314111,damsdorf
01,1060026,Gönnebek,24610,54.049038,10.177561,gönnebek
01,1060072,Schmalensee,24638,54.08260799999999,10.270750999999999,schmalensee
01,1060080,Stocksee,24326,54.089631000000004,10.343274000000001,stocksee
01,1060086,Tarbek,24619,54.055964,10.269726,tarbek
01,1060087,Tensfeld,23824,54.042170999999996,10.320723,tensfeld
01,1060089,Trappenkamp,24610,54.041764,10.22097,trappenkamp
01,1060043,Itzstedt,23845,53.806383999999994,10.156532,itzstedt
01,1060046,Kayhude,23863,53.757591000000005,10.134312,kayhude
01,1060058,Nahe,23866,53.795306999999994,10.134557000000001,nahe
01,1060065,Oering,23845,53.825233999999995,10.14788,oering
01,1060076,Seth,23845,53.850390000000004,10.175024,seth
01,1060085,Sülfeld,23867,53.799372,10.231158,sülfeld
01,1060002,Alveslohe,25486,53.78690600000001,9.913813000000001,alveslohe
01,1060034,Hartenholm,24628,53.899992000000005,10.06027,hartenholm
01,1060036,Hasenmoor,24640,53.899913,9.981344,hasenmoor
01,1060054,Lentföhrden,24632,53.873197,9.888251,lentföhrden
01,1060064,Nützen,24568,53.864688,9.919785000000001,nützen
01,1060073,Schmalfeld,24640,53.876899,9.983686,schmalfeld
01,1060042,Hüttblek,24641,53.83945,10.071819,hüttblek
01,1060045,Kattendorf,24568,53.843003,10.023721,kattendorf
01,1060047,Kisdorf,24629,53.807677000000005,10.007000999999999,kisdorf
01,1060066,Oersdorf,24568,53.840293,9.994860000000001,oersdorf
01,1060077,Sievershütten,24641,53.841324,10.106221000000001,sievershütten
01,1060082,Struvenhütten,24643,53.865596999999994,10.055588,struvenhütten
01,1060084,Stuvenborn,24641,53.851443999999994,10.124938,stuvenborn
01,1060094,Wakendorf II,24558,53.780212,10.079879,wakendorf ii
01,1060100,Winsen,24568,53.830923999999996,10.015364,winsen
01,1060007,Bark,23826,53.910575,10.185039999999999,bark
01,1060008,Bebensee,23816,53.875085,10.29855,bebensee
01,1060022,Fredesdorf,23826,53.875228,10.203463000000001,fredesdorf
01,1060029,Groß Niendorf,23816,53.84575699999999,10.245303,groß niendorf
01,1060041,Högersdorf,23795,53.920747999999996,10.284353,högersdorf
01,1060051,Kükels,23829,53.894887,10.238914999999999,kükels
01,1060053,Leezen,23816,53.865227000000004,10.251739,leezen
01,1060057,Mözen,23795,53.911080000000005,10.258094999999999,mözen
01,1060062,Neversdorf,23816,53.86476999999999,10.285862,neversdorf
01,1060074,Schwissel,23795,53.895424,10.293633999999999,schwissel
01,1060088,Todesfelde,23826,53.891939,10.176082000000001,todesfelde
01,1060101,Wittenborn,23829,53.926269,10.223554,wittenborn
01,1060011,Boostedt,24598,54.010323,10.025785,boostedt
01,1060016,Daldorf,24635,54.017015,10.248643,daldorf
01,1060028,Groß Kummerfeld,24626,54.051542000000005,10.073673,groß kummerfeld
01,1060038,Heidmühlen,24598,53.97248199999999,10.083729,heidmühlen
01,1060052,Latendorf,24598,53.995075,10.063741,latendorf
01,1060068,Rickling,24635,54.006057999999996,10.164860000000001,rickling
01,1060006,Bahrenhof,23845,53.878558999999996,10.379472999999999,bahrenhof
01,1060010,Blunk,23813,54.007567,10.315789,blunk
01,1060015,Bühnsdorf,23845,53.88694399999999,10.374463,bühnsdorf
01,1060018,Dreggers,23845,53.885277,10.345728999999999,dreggers
01,1060020,Fahrenkrug,23795,53.941286,10.257059,fahrenkrug
01,1060024,Geschendorf,23815,53.921999,10.441563,geschendorf
01,1060025,Glasau,23719,54.05666899999999,10.516777000000001,glasau
01,1060030,Groß Rönnau,23795,53.97240600000001,10.311886,groß rönnau
01,1060048,Klein Gladebrügge,23795,53.914441000000004,10.317432,klein gladebrügge
01,1060049,Klein Rönnau,23795,53.961927,10.320689,klein rönnau
01,1060050,Krems II,23827,53.986501000000004,10.355628,krems ii
01,1060059,Negernbötel,23795,53.982902,10.248764,negernbötel
01,1060060,Nehms,23813,54.021025,10.352354,nehms
01,1060061,Neuengörs,23818,53.89911600000001,10.384085,neuengörs
01,1060067,Pronstorf,23820,53.957692,10.471219999999999,pronstorf
01,1060069,Rohlstorf,23821,53.971759,10.408268,rohlstorf
01,1060070,Schackendorf,23795,53.957561,10.270569,schackendorf
01,1060071,Schieren,23795,53.944727,10.390998,schieren
01,1060075,Seedorf,23823,54.049901,10.408941,seedorf
01,1060079,Stipsdorf,23795,53.941826,10.33446,stipsdorf
01,1060081,Strukdorf,23815,53.91982900000001,10.485999999999999,strukdorf
01,1060090,Travenhorst,23827,54.019011,10.452703,travenhorst
01,1060091,Traventhal,23795,53.894563,10.317698,traventhal
01,1060093,Wakendorf I,23845,53.864458,10.357027,wakendorf i
01,1060096,Weede,23795,53.922028000000005,10.372489,weede
01,1060097,Wensin,23827,53.980996,10.412545,wensin
01,1060098,Westerrade,23815,53.935883999999994,10.45969,westerrade
01,1061029,Glückstadt,25348,53.788000000000004,9.423755,glückstadt
01,1061046,Itzehoe,25524,53.92521,9.516607,itzehoe
01,1061113,Wilster,25554,53.922543000000005,9.374577,wilster
01,1061005,Auufer,25548,53.92473199999999,9.685711999999999,auufer
01,1061016,Breitenberg,25597,53.924364000000004,9.634796000000001,breitenberg
01,1061017,Breitenburg,25524,53.904697999999996,9.572386999999999,breitenburg
01,1061053,Kollmoor,25524,53.920974,9.599128,kollmoor
01,1061058,Kronsmoor,25597,53.908361,9.60155,kronsmoor
01,1061061,Lägerdorf,25566,53.888647999999996,9.570478999999999,lägerdorf
01,1061068,Moordiek,25597,53.913075,9.651163,moordiek
01,1061072,Münsterdorf,25587,53.903684,9.540644,münsterdorf
01,1061079,Oelixdorf,25524,53.926812,9.564791,oelixdorf
01,1061109,Westermoor,25597,53.914039,9.626905,westermoor
01,1061115,Wittenbergen,25548,53.933797999999996,9.680534,wittenbergen
01,1061004,Altenmoor,25335,53.764193000000006,9.576880000000001,altenmoor
01,1061012,Blomesche Wildnis,25348,53.805769999999995,9.45082,blomesche wildnis
01,1061015,Borsfleth,25376,53.82555,9.430342999999999,borsfleth
01,1061027,Engelbrechtsche Wildnis,25348,53.78583100000001,9.447339999999999,engelbrechtsche wildnis
01,1061037,Herzhorn,25379,53.786218999999996,9.483167,herzhorn
01,1061041,Hohenfelde,25358,53.844593999999994,9.624106,hohenfelde
01,1061044,Horst (Holstein),25358,53.810990000000004,9.618468,horst (holstein)
01,1061050,Kiebitzreihe,25368,53.78240699999999,9.614131,kiebitzreihe
01,1061054,Krempdorf,25376,53.826512,9.461193,krempdorf
01,1061074,Neuendorf b. Elmshorn,25335,53.737582999999994,9.562834,neuendorf b. elmshorn
01,1061101,Sommerland,25358,53.803001,9.538264999999999,sommerland
01,1061118,Kollmar,25377,53.732667000000006,9.494978,kollmar
01,1061008,Bekdorf,25554,53.938255000000005,9.423362,bekdorf
01,1061010,Bekmünde,25524,53.925343000000005,9.446057000000001,bekmünde
01,1061024,Drage,25582,54.004376,9.51882,drage
01,1061034,Heiligenstedten,25524,53.930251,9.467979,heiligenstedten
01,1061035,Heiligenstedtenerkamp,25524,53.898674,9.466889,heiligenstedtenerkamp
01,1061039,Hodorf,25569,53.904109,9.428529,hodorf
01,1061040,Hohenaspe,25582,53.98905799999999,9.527581,hohenaspe
01,1061045,Huje,25588,53.976997,9.435611999999999,huje
01,1061047,Kaaks,25582,53.99009100000001,9.469405,kaaks
01,1061052,Kleve,25554,53.965863,9.404044,kleve
01,1061059,Krummendiek,25554,53.944241000000005,9.416376,krummendiek
01,1061065,Lohbarbek,25551,53.945443000000004,9.635698,lohbarbek
01,1061067,Mehlbek,25588,54.004537,9.434371,mehlbek
01,1061070,Moorhusen,25554,53.96046,9.388353,moorhusen
01,1061082,Oldendorf,25588,53.954336,9.456166,oldendorf
01,1061083,Ottenbüttel,25591,53.972124,9.506342,ottenbüttel
01,1061084,Peissen,25551,54.024416,9.608692,peissen
01,1061098,Schlotfeld,25551,53.95926,9.583146000000001,schlotfeld
01,1061100,Silzen,25551,54.029281000000005,9.635016,silzen
01,1061114,Winseldorf,25551,53.943474,9.605041,winseldorf
01,1061006,Bahrenfleth,25569,53.868102,9.449548,bahrenfleth
01,1061022,Dägeling,25578,53.878818,9.531386999999999,dägeling
01,1061026,Elskop,25361,53.812422,9.493561,elskop
01,1061030,Grevenkop,25361,53.84298100000001,9.535983,grevenkop
01,1061055,Krempe,25361,53.837959,9.487441,krempe
01,1061056,Kremperheide,25569,53.881515,9.478852999999999,kremperheide
01,1061057,Krempermoor,25569,53.877501,9.480149,krempermoor
01,1061073,Neuenbrook,25578,53.861734,9.532922,neuenbrook
01,1061092,Rethwisch,25566,53.866516000000004,9.591714999999999,rethwisch
01,1061104,Süderau,25361,53.821612,9.512541,süderau
01,1061001,Aasbüttel,25560,54.067271,9.441789,aasbüttel
01,1061003,Agethorst,25560,54.019137,9.436849,agethorst
01,1061011,Besdorf,25584,54.050222999999995,9.360111999999999,besdorf
01,1061013,Bokelrehm,25596,54.03761899999999,9.385822000000001,bokelrehm
01,1061014,Bokhorst,25560,54.05730500000001,9.400735000000001,bokhorst
01,1061021,Christinenthal,25593,54.050318999999995,9.532356,christinenthal
01,1061031,Gribbohm,25596,54.027149,9.347706,gribbohm
01,1061033,Hadenfeld,25560,54.033196,9.456156,hadenfeld
01,1061043,Holstenniendorf,25584,54.041651,9.348113,holstenniendorf
01,1061048,Kaisborstel,25560,54.017026,9.468977,kaisborstel
01,1061066,Looft,25582,54.0287,9.523319,looft
01,1061076,Nienbüttel,25596,54.030539000000005,9.415315,nienbüttel
01,1061078,Nutteln,25594,53.990288,9.388823,nutteln
01,1061081,Oldenborstel,25560,54.062709,9.513297999999999,oldenborstel
01,1061085,Pöschendorf,25560,54.03879499999999,9.490449,pöschendorf
01,1061087,Puls,25560,54.083808,9.515658,puls
01,1061091,Reher,25593,54.065856000000004,9.573588,reher
01,1061097,Schenefeld,25560,54.046014,9.481183999999999,schenefeld
01,1061105,Vaale,25594,53.999729,9.379707000000002,vaale
01,1061106,Vaalermoor,25594,53.978742000000004,9.331482000000001,vaalermoor
01,1061107,Wacken,25596,54.020134,9.379255,wacken
01,1061108,Warringholz,25560,54.078701,9.462802,warringholz
01,1061002,Aebtissinwisch,25572,53.970611,9.289861,aebtissinwisch
01,1061007,Beidenfleth,25573,53.879509999999996,9.40975,beidenfleth
01,1061018,Brokdorf,25576,53.861281999999996,9.331738,brokdorf
01,1061020,Büttel,25572,53.899717,9.229071000000001,büttel
01,1061023,Dammfleth,25554,53.908713,9.373047999999999,dammfleth
01,1061025,Ecklak,25572,53.95312,9.2624,ecklak
01,1061060,Kudensee,25572,53.930105000000005,9.212866,kudensee
01,1061062,Landrecht,25554,53.931938,9.387394,landrecht
01,1061063,Landscheide,25572,53.92201,9.251644,landscheide
01,1061077,Nortorf,25554,53.926535,9.290542,nortorf
01,1061095,Sankt Margarethen,25572,53.889309,9.256234,sankt margarethen
01,1061102,Stördorf,25554,53.917182,9.427764999999999,stördorf
01,1061110,Wewelsfleth,25599,53.842891,9.399654,wewelsfleth
01,1061119,Neuendorf-Sachsenbande,25554,53.959764,9.337569,neuendorf-sachsenbande
01,1061019,Brokstedt,24616,53.990426,9.821297,brokstedt
01,1061028,Fitzbek,25579,54.002409,9.768919,fitzbek
01,1061036,Hennstedt,25581,54.030506,9.718676,hennstedt
01,1061038,Hingstheide,25563,53.907649,9.753551,hingstheide
01,1061042,Hohenlockstedt,25551,53.964541000000004,9.617875,hohenlockstedt
01,1061049,Kellinghusen,25548,53.949571999999996,9.713967,kellinghusen
01,1061064,Lockstedt,25551,54.004045999999995,9.686478,lockstedt
01,1061071,Mühlenbarbek,25548,53.958662,9.668168,mühlenbarbek
01,1061080,Oeschebüttel,25548,53.989028000000005,9.721786999999999,oeschebüttel
01,1061086,Poyenberg,25581,54.041555,9.691984,poyenberg
01,1061088,Quarnstedt,25563,53.953878,9.784677,quarnstedt
01,1061089,Rade,25579,54.000918000000006,9.741760000000001,rade
01,1061093,Rosdorf,25548,53.976935,9.727276,rosdorf
01,1061096,Sarlhusen,24616,54.023134,9.792793,sarlhusen
01,1061103,Störkathen,25548,53.979082999999996,9.756877000000001,störkathen
01,1061111,Wiedenborstel,24613,54.0432,9.76182,wiedenborstel
01,1061112,Willenscharen,24616,54.010043,9.80818,willenscharen
01,1061116,Wrist,25563,53.930952000000005,9.7507,wrist
01,1061117,Wulfsmoor,25563,53.911925,9.724143,wulfsmoor
01,1062001,Ahrensburg,22926,53.67575,10.239705,ahrensburg
01,1062004,Bad Oldesloe,23843,53.810046,10.373196,bad oldesloe
01,1062006,Bargteheide,22941,53.729889,10.261797999999999,bargteheide
01,1062009,Barsbüttel,22885,53.569015,10.169264,barsbüttel
01,1062018,Glinde,21509,53.540087,10.211314,glinde
01,1062023,Großhansdorf,22927,53.662546999999996,10.285038,großhansdorf
01,1062053,Oststeinbek,22113,53.54223399999999,10.164774000000001,oststeinbek
01,1062060,Reinbek,21465,53.509793,10.251748,reinbek
01,1062061,Reinfeld (Holstein),23858,53.8315,10.488565,reinfeld (holstein)
01,1062076,Tangstedt,22889,53.732604,10.087763,tangstedt
01,1062090,Ammersbek,22949,53.690234,10.193594000000001,ammersbek
01,1062019,Grabau,23845,53.80403199999999,10.275263,grabau
01,1062046,Meddewade,23847,53.810258,10.440757000000001,meddewade
01,1062050,Neritz,23843,53.7877,10.29064,neritz
01,1062056,Pölitz,23847,53.772565,10.381723,pölitz
01,1062062,Rethwisch,23847,53.772666,10.452622,rethwisch
01,1062065,Rümpel,23843,53.782963,10.351796,rümpel
01,1062089,Lasbek,23847,53.742148,10.355082000000001,lasbek
01,1062091,Steinburg,22964,53.705151,10.406436,steinburg
01,1062092,Travenbrück,23843,53.839316000000004,10.323018,travenbrück
01,1062005,Bargfeld-Stegen,23863,53.766521,10.186613000000001,bargfeld-stegen
01,1062014,Delingsdorf,22941,53.706655000000005,10.252309,delingsdorf
01,1062016,Elmenhorst,23869,53.764821999999995,10.263214,elmenhorst
01,1062027,Hammoor,22941,53.713776,10.322497,hammoor
01,1062036,Jersbek,22941,53.741287,10.22162,jersbek
01,1062051,Nienwohld,23863,53.786823999999996,10.193688,nienwohld
01,1062078,Todendorf,22965,53.694968,10.348946,todendorf
01,1062081,Tremsbüttel,22967,53.742856,10.310209,tremsbüttel
01,1062003,Badendorf,23619,53.869606000000005,10.583066,badendorf
01,1062008,Barnitz,23858,53.805978,10.500288000000001,barnitz
01,1062025,Hamberge,23619,53.838372,10.582459,hamberge
01,1062031,Heidekamp,23858,53.85430899999999,10.501018,heidekamp
01,1062032,Heilshoop,23619,53.887659,10.530579,heilshoop
01,1062039,Klein Wesenberg,23860,53.811108,10.545461999999999,klein wesenberg
01,1062048,Mönkhagen,23619,53.901221,10.561679,mönkhagen
01,1062059,Rehhorst,23619,53.876681999999995,10.469489,rehhorst
01,1062083,Westerau,23847,53.778819999999996,10.489307,westerau
01,1062087,Zarpen,23619,53.870262,10.518179,zarpen
01,1062093,Feldhorst,23858,53.853235,10.424092,feldhorst
01,1062094,Wesenberg,23858,53.832708999999994,10.533411,wesenberg
01,1062011,Braak,22145,53.610374,10.24468,braak
01,1062035,Hoisdorf,22955,53.660162,10.309948,hoisdorf
01,1062069,Siek,22962,53.635029,10.297782000000002,siek
01,1062071,Stapelfeld,22145,53.606584999999995,10.220756,stapelfeld
01,1062088,Brunsbek,22946,53.587566,10.275167,brunsbek
01,1062020,Grande,22946,53.58,10.386682,grande
01,1062021,Grönwohld,22956,53.642419999999994,10.408128,grönwohld
01,1062022,Großensee,22946,53.614238,10.34108,großensee
01,1062026,Hamfelde,22929,53.60479599999999,10.449254,hamfelde
01,1062033,Hohenfelde,22946,53.630906,10.474272000000001,hohenfelde
01,1062040,Köthel,22929,53.609469999999995,10.507479,köthel
01,1062045,Lütjensee,22952,53.648967000000006,10.364742,lütjensee
01,1062058,Rausdorf,22929,53.589038,10.330585000000001,rausdorf
01,1062082,Trittau,22946,53.61413100000001,10.402566,trittau
01,1062086,Witzhave,22969,53.567779,10.337867,witzhave
02,2000000,Hamburg,20038,53.550678000000005,9.99697,hamburg
03,3101000,Braunschweig,38100,52.26249,10.520525,braunschweig
03,3102000,Salzgitter,38226,52.127087,10.370054,salzgitter
03,3103000,Wolfsburg,38440,52.421938,10.784975,wolfsburg
03,3151009,Gifhorn,38518,52.482156999999994,10.544763,gifhorn
03,3151025,Sassenburg,38524,52.52859399999999,10.615555,sassenburg
03,3151040,Wittingen,29378,52.72877,10.740212,wittingen
03,3151002,Barwedel,38476,52.522997,10.777346000000001,barwedel
03,3151004,Bokensdorf,38556,52.500209,10.716038000000001,bokensdorf
03,3151014,Jembke,38477,52.497889,10.761218,jembke
03,3151020,Osloß,38557,52.469387,10.680136,osloß
03,3151030,Tappenbeck,38479,52.47459,10.74338,tappenbeck
03,3151039,Weyhausen,38554,52.463114000000004,10.715933,weyhausen
03,3151003,Bergfeld,38467,52.546012,10.845842999999999,bergfeld
03,3151005,Brome,38465,52.601479000000005,10.942136999999999,brome
03,3151008,Ehra-Lessien,38468,52.56811,10.770763,ehra-lessien
03,3151021,Parsau,38470,52.536258999999994,10.891588,parsau
03,3151024,Rühen,38471,52.485839,10.885271000000001,rühen
03,3151031,Tiddische,38473,52.51674499999999,10.80446,tiddische
03,3151032,Tülau,38474,52.577302,10.877466,tülau
03,3151007,Dedelstorf,29386,52.701001,10.504885,dedelstorf
03,3151011,Hankensbüttel,29386,52.730863,10.603682000000001,hankensbüttel
03,3151019,Obernholz,29386,52.761286,10.608925,obernholz
03,3151028,Sprakensehl,29365,52.767053000000004,10.494114999999999,sprakensehl
03,3151029,Steinhorst,29367,52.689985,10.404833,steinhorst
03,3151006,Calberlah,38547,52.421337,10.623002,calberlah
03,3151013,Isenbüttel,38550,52.435125,10.578471,isenbüttel
03,3151022,Ribbesbüttel,38551,52.434224,10.506401,ribbesbüttel
03,3151037,Wasbüttel,38553,52.413252,10.592713,wasbüttel
03,3151012,Hillerse,38543,52.413097,10.404067,hillerse
03,3151015,Leiferde,38542,52.437813,10.43621,leiferde
03,3151017,Meinersen,38536,52.475153000000006,10.362138,meinersen
03,3151018,Müden (Aller),38539,52.52559399999999,10.362484,müden (aller)
03,3151001,Adenbüttel,38528,52.379328,10.450974,adenbüttel
03,3151016,Meine,38527,52.381857000000004,10.545222,meine
03,3151023,Rötgesbüttel,38531,52.415253,10.532239,rötgesbüttel
03,3151027,Schwülper,38179,52.346961,10.450892,schwülper
03,3151034,Vordorf,38533,52.368373,10.522861,vordorf
03,3151041,Didderse,38530,52.381017,10.402871000000001,didderse
03,3151010,Groß Oesingen,29393,52.648088,10.462138000000001,groß oesingen
03,3151026,Schönewörde,29396,52.63310799999999,10.62824,schönewörde
03,3151033,Ummern,29369,52.591083,10.432493,ummern
03,3151035,Wagenhoff,38559,52.551739000000005,10.523958,wagenhoff
03,3151036,Wahrenholz,29399,52.615669,10.603296,wahrenholz
03,3151038,Wesendorf,29392,52.592921999999994,10.534582,wesendorf
03,3152001,Adelebsen,37139,51.580221,9.756785,adelebsen
03,3152004,Bovenden,37120,51.586928,9.923325,bovenden
03,3152007,Duderstadt,37115,51.512440000000005,10.257176,duderstadt
03,3152009,Friedland,37133,51.419791,9.913521000000001,friedland
03,3152011,Gleichen,37130,51.469787,10.054922999999999,gleichen
03,3152012,Göttingen,37083,51.533027000000004,9.935139999999999,göttingen
03,3152016,Hann. Münden,34346,51.415826,9.654832,hann. münden
03,3152021,Rosdorf,37124,51.506056,9.896257,rosdorf
03,3152026,Staufenberg,34355,51.353644,9.620844,staufenberg
03,3152005,Bühren,37127,51.484852000000004,9.677991,bühren
03,3152006,Dransfeld,37127,51.5023,9.76266,dransfeld
03,3152013,Jühnde,37127,51.463704,9.801203999999998,jühnde
03,3152017,Niemetal,37127,51.515519,9.7144,niemetal
03,3152023,Scheden,37127,51.454935,9.733783,scheden
03,3152002,Bilshausen,37434,51.630495,10.158692,bilshausen
03,3152003,Bodensee,37434,51.604298,10.1319,bodensee
03,3152010,Gieboldehausen,37434,51.610816,10.214772,gieboldehausen
03,3152014,Krebeck,37434,51.587922,10.122558,krebeck
03,3152018,Obernfeld,37434,51.555772999999995,10.232924,obernfeld
03,3152019,Rhumspringe,37434,51.582411,10.295743,rhumspringe
03,3152020,Rollshausen,37434,51.569563,10.216588,rollshausen
03,3152022,Rüdershausen,37434,51.581182,10.268239999999999,rüdershausen
03,3152028,Wollbrandshausen,37434,51.586754,10.161617999999999,wollbrandshausen
03,3152029,Wollershausen,37434,51.595751,10.256885,wollershausen
03,3152008,Ebergötzen,37136,51.570615999999994,10.101579,ebergötzen
03,3152015,Landolfshausen,37136,51.539947,10.104399,landolfshausen
03,3152024,Seeburg,37136,51.565172,10.149291,seeburg
03,3152025,Seulingen,37136,51.543758000000004,10.160867999999999,seulingen
03,3152027,Waake,37136,51.555296000000006,10.056425,waake
03,3153002,Bad Harzburg,38667,51.880275,10.560048,bad harzburg
03,3153007,Langelsheim,38685,51.938286,10.335897000000001,langelsheim
03,3153008,Liebenburg,38704,52.020145,10.432161,liebenburg
03,3153012,Seesen,38723,51.890957,10.176074,seesen
03,3153016,Braunlage,38700,51.728021999999996,10.610704,braunlage
03,3153017,Goslar,38640,51.906411999999996,10.428975,goslar
03,3153018,Clausthal-Zellerfeld,38678,51.803754999999995,10.333188999999999,clausthal-zellerfeld
03,3153006,Hahausen,38729,51.948362,10.218368,hahausen
03,3153009,Lutter am Barenberge,38729,51.983968,10.259361,lutter am barenberge
03,3153014,Wallmoden,38729,52.019418,10.292667,wallmoden
03,3154003,Büddenstedt,38372,52.163289,11.026715,büddenstedt
03,3154010,Helmstedt,38350,52.227571000000005,11.010462,helmstedt
03,3154013,Königslutter am Elm,38154,52.252361,10.81673,königslutter am elm
03,3154014,Lehre,38165,52.33102,10.670817999999999,lehre
03,3154019,Schöningen,38364,52.141775,10.967701,schöningen
03,3154008,Grasleben,38368,52.306135999999995,11.013922,grasleben
03,3154015,Mariental,38368,52.277065,10.98211,mariental
03,3154016,Querenhorst,38368,52.336909000000006,10.961857,querenhorst
03,3154018,Rennau,38368,52.296009000000005,10.911285000000001,rennau
03,3154002,Beierstedt,38382,52.073819,10.858806,beierstedt
03,3154006,Gevensleben,38384,52.077261,10.822148,gevensleben
03,3154011,Ingeleben,38385,52.107912,10.872618,ingeleben
03,3154012,Jerxheim,38381,52.083443,10.898594000000001,jerxheim
03,3154020,Söllingen,38387,52.092375,10.924725,söllingen
03,3154023,Twieflingen,38388,52.124961,10.917651,twieflingen
03,3154005,Frellstedt,38373,52.206399,10.914392,frellstedt
03,3154017,Räbke,38375,52.194672,10.87847,räbke
03,3154021,Süpplingen,38373,52.227235,10.905049,süpplingen
03,3154022,Süpplingenburg,38376,52.250906,10.908207,süpplingenburg
03,3154025,Warberg,38378,52.182049,10.920110000000001,warberg
03,3154026,Wolsdorf,38379,52.190661,10.941513,wolsdorf
03,3154001,Bahrdorf,38459,52.387634000000006,11.004182,bahrdorf
03,3154004,Danndorf,38461,52.424783000000005,10.912017,danndorf
03,3154007,Grafhorst,38462,52.444849,10.945085,grafhorst
03,3154009,Groß Twülpstedt,38464,52.373469,10.919913000000001,groß twülpstedt
03,3154024,Velpke,38458,52.408394,10.934106,velpke
03,3155001,Bad Gandersheim,37581,51.870567,10.024463,bad gandersheim
03,3155002,Bodenfelde,37194,51.639951,9.553109,bodenfelde
03,3155003,Dassel,37586,51.802058,9.687145,dassel
03,3155005,Hardegsen,37181,51.650579,9.829689,hardegsen
03,3155006,Kalefeld,37589,51.795915,10.034411,kalefeld
03,3155007,Katlenburg-Lindau,37191,51.668293,10.108034,katlenburg-lindau
03,3155009,Moringen,37186,51.697192,9.871075,moringen
03,3155010,Nörten-Hardenberg,37176,51.625491,9.935241,nörten-hardenberg
03,3155011,Northeim,37154,51.705681,10.000406,northeim
03,3155012,Uslar,37170,51.660911999999996,9.635000999999999,uslar
03,3155013,Einbeck,37574,51.816626,9.866060000000001,einbeck
03,3156002,Bad Lauterberg im Harz,37431,51.626737,10.46544,bad lauterberg im harz
03,3156003,Bad Sachsa,37441,51.594452000000004,10.552027,bad sachsa
03,3156009,Herzberg am Harz,37412,51.65664,10.340023,herzberg am harz
03,3156011,Osterode am Harz,37520,51.728407000000004,10.248155,osterode am harz
03,3156017,Bad Grund (Harz),37539,51.809877,10.236863,bad grund (harz)
03,3156006,Elbingerode,37412,51.659428000000005,10.275669,elbingerode
03,3156008,Hattorf am Harz,37197,51.651267,10.235606,hattorf am harz
03,3156010,Hörden am Harz,37412,51.668715,10.287111,hörden am harz
03,3156015,Wulften am Harz,37199,51.662753,10.176938999999999,wulften am harz
03,3156012,Walkenried,37445,51.584457,10.615065,walkenried
03,3156013,Wieda,37447,51.632622,10.585571,wieda
03,3156016,Zorge,37449,51.637471000000005,10.633791,zorge
03,3157001,Edemissen,31234,52.38746,10.263529,edemissen
03,3157002,Hohenhameln,31249,52.258403,10.062749,hohenhameln
03,3157005,Lengede,38268,52.204873,10.306207,lengede
03,3157006,Peine,31224,52.321764,10.227076,peine
03,3157007,Vechelde,38159,52.260798,10.373038000000001,vechelde
03,3157008,Wendeburg,38176,52.326392999999996,10.385712,wendeburg
03,3157009,Ilsede,31241,52.263896,10.221491,ilsede
03,3158006,Cremlingen,38162,52.248443,10.65512,cremlingen
03,3158037,Wolfenbüttel,38300,52.164584999999995,10.540383,wolfenbüttel
03,3158039,Schladen-Werla,38315,52.036753000000004,10.561486,schladen-werla
03,3158002,Baddeckenstedt,38271,52.083942,10.231519,baddeckenstedt
03,3158004,Burgdorf,38272,52.146029999999996,10.219000999999999,burgdorf
03,3158011,Elbe,38274,52.096734000000005,10.266478,elbe
03,3158016,Haverlah,38275,52.052341999999996,10.328567999999999,haverlah
03,3158018,Heere,38277,52.062397,10.234492,heere
03,3158028,Sehlde,38279,52.038745,10.262343,sehlde
03,3158005,Cramme,38312,52.113068,10.445960000000001,cramme
03,3158010,Dorstadt,38312,52.094949,10.561876,dorstadt
03,3158014,Flöthe,38312,52.075022,10.47625,flöthe
03,3158019,Heiningen,38312,52.071009000000004,10.554399,heiningen
03,3158023,Ohrum,38312,52.119288,10.563531,ohrum
03,3158038,Börßum,38312,52.069203,10.582434,börßum
03,3158009,Dettum,38173,52.173041999999995,10.669944000000001,dettum
03,3158012,Erkerode,38173,52.203267,10.707678999999999,erkerode
03,3158013,Evessen,38173,52.188334000000005,10.71125,evessen
03,3158030,Sickte,38173,52.204544,10.639086,sickte
03,3158033,Veltheim (Ohe),38173,52.218112,10.682838,veltheim (ohe)
03,3158007,Dahlum,38170,52.145427000000005,10.861435,dahlum
03,3158008,Denkte,38170,52.137343,10.608957,denkte
03,3158017,Hedeper,38170,52.066396999999995,10.680154,hedeper
03,3158021,Kissenbrück,38170,52.108086,10.59517,kissenbrück
03,3158022,Kneitlingen,38170,52.174777,10.760789,kneitlingen
03,3158024,Remlingen,38170,52.112657,10.673705,remlingen
03,3158025,Roklum,38170,52.065366,10.739548,roklum
03,3158027,Schöppenstedt,38170,52.144545,10.77471,schöppenstedt
03,3158029,Semmenstedt,38170,52.093545,10.696296,semmenstedt
03,3158031,Uehrde,38170,52.10011,10.766094,uehrde
03,3158032,Vahlberg,38170,52.130534999999995,10.714286999999999,vahlberg
03,3158035,Winnigstedt,38170,52.065284999999996,10.765292,winnigstedt
03,3158036,Wittmar,38170,52.131201000000004,10.640957,wittmar
03,3241001,Hannover,30159,52.374551000000004,9.738083999999999,hannover
03,3241002,Barsinghausen,30890,52.301868,9.465003999999999,barsinghausen
03,3241003,Burgdorf,31303,52.446597,10.008214,burgdorf
03,3241004,Burgwedel,30938,52.519898,9.87508,burgwedel
03,3241005,Garbsen,30827,52.416278000000005,9.586889999999999,garbsen
03,3241006,Gehrden,30989,52.315068,9.59892,gehrden
03,3241007,Hemmingen,30966,52.32069,9.747743,hemmingen
03,3241008,Isernhagen,30916,52.454877,9.845386,isernhagen
03,3241009,Laatzen,30880,52.314795000000004,9.788174,laatzen
03,3241010,Langenhagen,30853,52.438469,9.734278,langenhagen
03,3241011,Lehrte,31275,52.372615,9.976958,lehrte
03,3241012,Neustadt am Rübenberge,31535,52.504751,9.457529,neustadt am rübenberge
03,3241013,Pattensen,30982,52.26395,9.761472,pattensen
03,3241014,Ronnenberg,30952,52.319008000000004,9.653235,ronnenberg
03,3241015,Seelze,30926,52.396951,9.589383999999999,seelze
03,3241016,Sehnde,31319,52.310452000000005,9.967172999999999,sehnde
03,3241017,Springe,31832,52.208899,9.554961,springe
03,3241018,Uetze,31311,52.463947,10.202538,uetze
03,3241019,Wedemark,30900,52.543486,9.712335000000001,wedemark
03,3241020,Wennigsen (Deister),30974,52.274405,9.574146,wennigsen (deister)
03,3241021,Wunstorf,31515,52.425436,9.424195,wunstorf
03,3251007,Bassum,27211,52.847956999999994,8.725552,bassum
03,3251012,Diepholz,49356,52.606393000000004,8.370605,diepholz
03,3251037,Stuhr,28816,53.028414,8.750247,stuhr
03,3251040,Sulingen,27232,52.682116,8.801224000000001,sulingen
03,3251041,Syke,28857,52.914547999999996,8.816336,syke
03,3251042,Twistringen,27239,52.799962,8.63877,twistringen
03,3251044,Wagenfeld,49419,52.546265000000005,8.590374,wagenfeld
03,3251047,Weyhe,28844,52.990888,8.840881,weyhe
03,3251009,Brockum,49448,52.46665,8.41884,brockum
03,3251020,Hüde,49448,52.49539,8.356987,hüde
03,3251022,Lembruch,49459,52.526785,8.366446,lembruch
03,3251023,Lemförde,49448,52.46750600000001,8.37707,lemförde
03,3251025,Marl,49448,52.484483,8.364875999999999,marl
03,3251029,Quernheim,49448,52.461704000000005,8.391985,quernheim
03,3251036,Stemshorn,49448,52.452090000000005,8.362587,stemshorn
03,3251005,Barnstorf,49406,52.709509999999995,8.505122,barnstorf
03,3251013,Drebber,49457,52.660138,8.425116000000001,drebber
03,3251014,Drentwede,49406,52.743443000000006,8.573205,drentwede
03,3251017,Eydelstedt,49406,52.691527,8.548216,eydelstedt
03,3251002,Asendorf,27330,52.769261,9.006295,asendorf
03,3251026,Martfeld,27327,52.875786,9.067936,martfeld
03,3251033,Schwarme,27327,52.89935,9.018059,schwarme
03,3251039,Süstedt,27305,52.861031000000004,8.922148,süstedt
03,3251048,Bruchhausen-Vilsen,27305,52.824514,9.000448,bruchhausen-vilsen
03,3251003,Bahrenborstel,27245,52.57221,8.815121000000001,bahrenborstel
03,3251004,Barenburg,27245,52.621324,8.798729,barenburg
03,3251018,Freistatt,27259,52.623062,8.648938000000001,freistatt
03,3251021,Kirchdorf,27245,52.594752,8.836015,kirchdorf
03,3251043,Varrel,27259,52.621233,8.730967999999999,varrel
03,3251045,Wehrbleck,27259,52.628854000000004,8.692263,wehrbleck
03,3251006,Barver,49453,52.620672,8.593598,barver
03,3251011,Dickel,49453,52.64455400000001,8.472542,dickel
03,3251019,Hemsloh,49453,52.601629,8.509428,hemsloh
03,3251030,Rehden,49453,52.609902000000005,8.482683,rehden
03,3251046,Wetschen,49453,52.612632999999995,8.446206,wetschen
03,3251001,Affinghausen,27257,52.782963,8.87991,affinghausen
03,3251015,Ehrenburg,27248,52.747727000000005,8.70452,ehrenburg
03,3251028,Neuenkirchen,27251,52.774506,8.748393,neuenkirchen
03,3251031,Scholen,27251,52.740308,8.769239,scholen
03,3251032,Schwaförden,27252,52.73778299999999,8.818783,schwaförden
03,3251038,Sudwalde,27257,52.796913,8.842769,sudwalde
03,3251008,Borstel,27246,52.669312,8.971999,borstel
03,3251024,Maasen,27249,52.692321,8.885683,maasen
03,3251027,Mellinghausen,27249,52.707432999999995,8.897383999999999,mellinghausen
03,3251034,Siedenburg,27254,52.692898,8.940684,siedenburg
03,3251035,Staffhorst,27254,52.721512,8.980126,staffhorst
03,3252001,Aerzen,31855,52.046638,9.261633,aerzen
03,3252002,Bad Münder am Deister,31848,52.197773,9.463755,bad münder am deister
03,3252003,Bad Pyrmont,31812,51.985504,9.262908,bad pyrmont
03,3252004,Coppenbrügge,31863,52.117614,9.550116000000001,coppenbrügge
03,3252005,Emmerthal,31860,52.033367,9.378681,emmerthal
03,3252006,Hameln,31785,52.104402,9.356316,hameln
03,3252007,Hessisch Oldendorf,31840,52.168347,9.252506,hessisch oldendorf
03,3252008,Salzhemmendorf,31020,52.066164,9.590419,salzhemmendorf
03,3254002,Alfeld (Leine),31061,51.98641,9.823056,alfeld (leine)
03,3254003,Algermissen,31191,52.253687,9.970613,algermissen
03,3254005,Bad Salzdetfurth,31162,52.063403,10.007627000000001,bad salzdetfurth
03,3254008,Bockenem,31167,52.009625,10.128926,bockenem
03,3254011,Diekholzen,31199,52.094590000000004,9.918044,diekholzen
03,3254014,Elze,31008,52.121655,9.735897,elze
03,3254017,Giesen,31180,52.195149,9.892277,giesen
03,3254020,Harsum,31177,52.21046,9.964458,harsum
03,3254021,Hildesheim,31134,52.155018,9.948634,hildesheim
03,3254022,Holle,31188,52.087421,10.160127000000001,holle
03,3254026,Nordstemmen,31171,52.160076000000004,9.782956,nordstemmen
03,3254028,Sarstedt,31157,52.234449,9.855848,sarstedt
03,3254029,Schellerten,31174,52.187719,10.10173,schellerten
03,3254032,Söhlde,31185,52.189448999999996,10.232297,söhlde
03,3254015,Everode,31085,51.950179,9.913953999999999,everode
03,3254016,Freden (Leine),31084,51.928153,9.893139999999999,freden (leine)
03,3254024,Landwehr,31087,51.916553,9.961388000000001,landwehr
03,3254034,Winzenburg,31088,51.936392,9.938814,winzenburg
03,3254006,Banteln,31029,52.069638,9.75175,banteln
03,3254007,Betheln,31032,52.11115,9.793052000000001,betheln
03,3254009,Brüggen,31033,52.041414,9.777042999999999,brüggen
03,3254010,Despetal,31035,52.086512,9.841695,despetal
03,3254013,Eime,31036,52.077171,9.724253,eime
03,3254018,Gronau (Leine),31028,52.086689,9.786483,gronau (leine)
03,3254027,Rheden,31039,52.058978,9.788408,rheden
03,3254019,Harbarnsen,31097,51.991433,9.959091,harbarnsen
03,3254023,Lamspringe,31195,51.957723,10.008627,lamspringe
03,3254025,Neuhof,31195,51.980856,10.032544,neuhof
03,3254030,Sehlem,31196,52.011515,9.975013,sehlem
03,3254035,Woltershausen,31099,51.973766999999995,9.959938000000001,woltershausen
03,3254001,Adenstedt,31079,51.99783,9.93498,adenstedt
03,3254004,Almstedt,31079,52.03317,9.957582,almstedt
03,3254012,Eberholzen,31079,52.053646,9.850241,eberholzen
03,3254031,Sibbesse,31079,52.054728999999995,9.902564,sibbesse
03,3254033,Westfeld,31079,52.042196000000004,9.911029,westfeld
03,3254036,Coppengrave,31091,51.988816,9.723869,coppengrave
03,3254037,Duingen,31089,52.005815999999996,9.699208,duingen
03,3254038,Hoyershausen,31093,52.018347999999996,9.7535,hoyershausen
03,3254039,Marienhagen,31094,52.034143,9.685902,marienhagen
03,3254040,Weenzen,31096,52.018415000000005,9.669811,weenzen
03,3255008,Delligsen,31073,51.942963,9.798914,delligsen
03,3255023,Holzminden,37603,51.830618,9.449537,holzminden
03,3255002,Bevern,37639,51.857475,9.494465,bevern
03,3255015,Golmbach,37640,51.900375,9.545419,golmbach
03,3255021,Holenberg,37642,51.909735,9.584829,holenberg
03,3255030,Negenborn,37643,51.890628,9.567476,negenborn
03,3255004,Boffzen,37691,51.750399,9.398506,boffzen
03,3255009,Derental,37691,51.694959000000004,9.429724,derental
03,3255014,Fürstenberg,37699,51.731487,9.399382000000001,fürstenberg
03,3255026,Lauenförde,37697,51.660524,9.386536999999999,lauenförde
03,3255003,Bodenwerder,37619,51.975913,9.512192,bodenwerder
03,3255005,Brevörde,37647,51.912231,9.427185,brevörde
03,3255016,Halle,37620,51.991248,9.563019,halle
03,3255017,Hehlen,37619,51.984688,9.470187,hehlen
03,3255019,Heinsen,37649,51.883855,9.434358,heinsen
03,3255020,Heyen,37619,52.008111,9.504859,heyen
03,3255025,Kirchbrak,37619,51.965529,9.57338,kirchbrak
03,3255031,Ottenstein,31868,51.946484999999996,9.408921000000001,ottenstein
03,3255032,Pegestorf,37619,51.926997,9.497627,pegestorf
03,3255033,Polle,37647,51.898705,9.406883,polle
03,3255035,Vahlbruch,37647,51.920738,9.341405,vahlbruch
03,3255001,Arholzen,37627,51.866505,9.569322,arholzen
03,3255007,Deensen,37627,51.862702,9.590468,deensen
03,3255010,Dielmissen,37633,51.971154999999996,9.607235000000001,dielmissen
03,3255012,Eimen,37632,51.876026,9.777941,eimen
03,3255013,Eschershausen,37632,51.929678,9.633947000000001,eschershausen
03,3255018,Heinade,37627,51.839233,9.632864,heinade
03,3255022,Holzen,37632,51.933805,9.666364999999999,holzen
03,3255027,Lenne,37627,51.894735,9.683031,lenne
03,3255028,Lüerdissen,37635,51.951167,9.626242999999999,lüerdissen
03,3255034,Stadtoldendorf,37627,51.882484000000005,9.622765,stadtoldendorf
03,3255036,Wangelnstedt,37627,51.87064,9.687795,wangelnstedt
03,3256022,Nienburg (Weser),31582,52.640859,9.211648,nienburg (weser)
03,3256025,Rehburg-Loccum,31547,52.463601000000004,9.203984,rehburg-loccum
03,3256030,Steyerberg,31595,52.56739,9.026193,steyerberg
03,3256005,Drakenburg,31623,52.687369999999994,9.210548,drakenburg
03,3256011,Haßbergen,31626,52.73085,9.230031,haßbergen
03,3256012,Heemsen,31622,52.704418999999994,9.262984,heemsen
03,3256027,Rohrsen,31627,52.709796,9.232437,rohrsen
03,3256002,Binnen,31619,52.618382,9.135239,binnen
03,3256019,Liebenau,31618,52.603837,9.095856,liebenau
03,3256023,Pennigsehl,31621,52.64238100000001,9.026812,pennigsehl
03,3256001,Balge,31609,52.718244999999996,9.184785,balge
03,3256021,Marklohe,31608,52.66863299999999,9.156531,marklohe
03,3256036,Wietzen,31613,52.713048,9.084499000000001,wietzen
03,3256020,Linsburg,31636,52.593546999999994,9.303647,linsburg
03,3256026,Rodewald,31637,52.662673,9.482895,rodewald
03,3256029,Steimbke,31634,52.655465,9.390322,steimbke
03,3256031,Stöckse,31638,52.64113100000001,9.341552,stöckse
03,3256004,Diepenau,31603,52.421591,8.732764,diepenau
03,3256024,Raddestorf,31604,52.455222,8.961702,raddestorf
03,3256033,Uchte,31600,52.499407999999995,8.907246,uchte
03,3256034,Warmsen,31606,52.456444,8.848914,warmsen
03,3256003,Bücken,27333,52.78005400000001,9.134546,bücken
03,3256007,Eystrup,27324,52.779255000000006,9.212755,eystrup
03,3256008,Gandesbergen,27324,52.760767,9.223028,gandesbergen
03,3256009,Hämelhausen,27324,52.780784,9.277964,hämelhausen
03,3256010,Hassel (Weser),27324,52.802471,9.205763000000001,hassel (weser)
03,3256013,Hilgermissen,27318,52.844913,9.149399,hilgermissen
03,3256014,Hoya,27318,52.80585500000001,9.135517,hoya
03,3256015,Hoyerhagen,27318,52.829149,9.08566,hoyerhagen
03,3256028,Schweringen,27324,52.74753199999999,9.181245,schweringen
03,3256035,Warpe,27333,52.740807999999994,9.104535,warpe
03,3256006,Estorf,31629,52.588451,9.141689,estorf
03,3256016,Husum,31632,52.565208,9.252157,husum
03,3256017,Landesbergen,31628,52.55829,9.119921000000001,landesbergen
03,3256018,Leese,31633,52.505729,9.11604,leese
03,3256032,Stolzenau,31592,52.516507,9.06701,stolzenau
03,3257003,Auetal,31749,52.240338,9.238764999999999,auetal
03,3257009,Bückeburg,31675,52.260372,9.050444,bückeburg
03,3257028,Obernkirchen,31683,52.270718,9.130875999999999,obernkirchen
03,3257031,Rinteln,31737,52.186989000000004,9.079841,rinteln
03,3257035,Stadthagen,31655,52.323705,9.205815,stadthagen
03,3257001,Ahnsen,31708,52.254661,9.101227,ahnsen
03,3257005,Bad Eilsen,31707,52.240368,9.105963000000001,bad eilsen
03,3257008,Buchholz,31710,52.224812,9.118924,buchholz
03,3257012,Heeßen,31707,52.23215,9.105587,heeßen
03,3257022,Luhden,31711,52.226166,9.092353999999998,luhden
03,3257007,Beckedorf,31699,52.342837,9.31373,beckedorf
03,3257015,Heuerßen,31700,52.329615000000004,9.277037,heuerßen
03,3257020,Lindhorst,31698,52.358059000000004,9.284344,lindhorst
03,3257021,Lüdersfeld,31702,52.358924,9.252911,lüdersfeld
03,3257006,Bad Nenndorf,31542,52.339433,9.374996000000001,bad nenndorf
03,3257011,Haste,31559,52.381033,9.39349,haste
03,3257016,Hohnhorst,31559,52.368567,9.371285,hohnhorst
03,3257036,Suthfeld,31555,52.366184000000004,9.397411,suthfeld
03,3257019,Lauenhagen,31714,52.356164,9.208019,lauenhagen
03,3257023,Meerbeck,31715,52.342315,9.14462,meerbeck
03,3257025,Niedernwöhren,31712,52.352037,9.147706,niedernwöhren
03,3257027,Nordsehl,31717,52.357575,9.18224,nordsehl
03,3257030,Pollhagen,31718,52.383784000000006,9.18941,pollhagen
03,3257037,Wiedensahl,31719,52.383095000000004,9.1198,wiedensahl
03,3257013,Helpsen,31691,52.311690999999996,9.115865,helpsen
03,3257014,Hespe,31693,52.331976,9.112803999999999,hespe
03,3257026,Nienstädt,31688,52.292916999999996,9.165807000000001,nienstädt
03,3257034,Seggebruch,31691,52.301545000000004,9.095061999999999,seggebruch
03,3257002,Apelern,31552,52.289576000000004,9.336445,apelern
03,3257017,Hülsede,31867,52.25013,9.361410000000001,hülsede
03,3257018,Lauenau,31867,52.274093,9.368136,lauenau
03,3257024,Messenkamp,31867,52.260048,9.380084,messenkamp
03,3257029,Pohle,31867,52.265412,9.341642,pohle
03,3257032,Rodenberg,31552,52.311819,9.352175,rodenberg
03,3257004,Auhagen,31553,52.398326000000004,9.294945,auhagen
03,3257010,Hagenburg,31558,52.433538,9.326684,hagenburg
03,3257033,Sachsenhagen,31553,52.395790000000005,9.264813,sachsenhagen
03,3257038,Wölpinghausen,31556,52.419109999999996,9.237707,wölpinghausen
03,3351004,Bergen,29303,52.809523,9.962303,bergen
03,3351006,Celle,29221,52.626307,10.08067,celle
03,3351010,Faßberg,29328,52.895917000000004,10.162006,faßberg
03,3351012,Hambühren,29313,52.635569,9.983253999999999,hambühren
03,3351023,Wietze,29323,52.65416999999999,9.838315,wietze
03,3351024,Winsen (Aller),29308,52.679316,9.90864,winsen (aller)
03,3351025,Eschede,29348,52.733782999999995,10.235106,eschede
03,3351026,Südheide,29320,53.624828,8.841305,südheide
03,3351005,Bröckel,29356,52.518414,10.216108,bröckel
03,3351007,Eicklingen,29358,52.550543999999995,10.180086,eicklingen
03,3351017,Langlingen,29364,52.555379,10.289155000000001,langlingen
03,3351022,Wienhausen,29342,52.57957,10.186005,wienhausen
03,3351002,Ahnsbeck,29353,52.611286,10.2848,ahnsbeck
03,3351003,Beedenbostel,29355,52.644316,10.257174000000001,beedenbostel
03,3351008,Eldingen,29351,52.686114,10.340328,eldingen
03,3351015,Hohne,29362,52.588533999999996,10.371589,hohne
03,3351016,Lachendorf,29331,52.62209,10.245238,lachendorf
03,3351001,Adelheidsdorf,29352,52.565363,10.059931,adelheidsdorf
03,3351018,Nienhagen,29336,52.556183,10.104402,nienhagen
03,3351021,Wathlingen,29339,52.539115,10.157425,wathlingen
03,3351501,Lohheide,29303,52.80933,9.933,lohheide
03,3352011,Cuxhaven,27472,53.864463,8.69747,cuxhaven
03,3352032,Loxstedt,27612,53.470254000000004,8.64907,loxstedt
03,3352050,Schiffdorf,27619,53.531085,8.652806,schiffdorf
03,3352059,Beverstedt,27616,53.434238,8.819169,beverstedt
03,3352060,Hagen im Bremischen,27628,53.355945999999996,8.644053,hagen im bremischen
03,3352061,Wurster Nordseeküste,27637,53.688724,8.8677,wurster nordseeküste
03,3352062,Geestland,27607,53.608072,8.594252000000001,geestland
03,3352004,Belum,21785,53.816223,8.994205000000001,belum
03,3352008,Bülkau,21782,53.747225,8.979034,bülkau
03,3352009,Cadenberge,21781,53.771739000000004,9.056553,cadenberge
03,3352018,Geversdorf,21784,53.795798,9.078763,geversdorf
03,3352039,Neuhaus (Oste),21785,53.802218999999994,9.036629,neuhaus (oste)
03,3352042,Oberndorf,21787,53.75196700000001,9.145491999999999,oberndorf
03,3352056,Wingst,21789,53.72229,9.039473,wingst
03,3352002,Armstorf,21769,53.597506,9.073936999999999,armstorf
03,3352024,Hollnseth,21769,53.578632999999996,9.097491,hollnseth
03,3352029,Lamstedt,21769,53.636306999999995,9.096336,lamstedt
03,3352036,Mittelstenahe,21770,53.651216000000005,9.038164,mittelstenahe
03,3352052,Stinstedt,21772,53.66020699999999,8.973002000000001,stinstedt
03,3352020,Hechthausen,21755,53.641149,9.237924000000001,hechthausen
03,3352022,Hemmoor,21745,53.690169999999995,9.135186000000001,hemmoor
03,3352044,Osten,21756,53.694162,9.188183,osten
03,3352025,Ihlienworth,21775,53.74069,8.916417,ihlienworth
03,3352038,Neuenkirchen,21763,53.777145,8.893852,neuenkirchen
03,3352041,Nordleda,21765,53.763622,8.834004,nordleda
03,3352043,Odisheim,21775,53.694134,8.940683,odisheim
03,3352045,Osterbruch,21762,53.778337,8.941582,osterbruch
03,3352046,Otterndorf,21762,53.807965,8.900001,otterndorf
03,3352051,Steinau,21775,53.678118000000005,8.877152,steinau
03,3352055,Wanna,21776,53.740531000000004,8.799188000000001,wanna
03,3353005,Buchholz in der Nordheide,21244,53.329257,9.881469000000001,buchholz in der nordheide
03,3353026,Neu Wulmstorf,21629,53.462891000000006,9.795589999999999,neu wulmstorf
03,3353029,Rosengarten,21224,53.39825,9.881436,rosengarten
03,3353031,Seevetal,21218,53.377706999999994,10.034869,seevetal
03,3353032,Stelle,21435,53.379578,10.110327,stelle
03,3353040,Winsen (Luhe),21423,53.362425,10.209159,winsen (luhe)
03,3353007,Drage,21423,53.409808999999996,10.260961,drage
03,3353023,Marschacht,21436,53.405538,10.375432,marschacht
03,3353033,Tespe,21395,53.402191,10.411397000000001,tespe
03,3353002,Asendorf,21271,53.289989,9.979301,asendorf
03,3353004,Brackel,21438,53.296893999999995,10.040638000000001,brackel
03,3353009,Egestorf,21272,53.194753000000006,10.063314,egestorf
03,3353016,Hanstedt,21271,53.258027,10.014498,hanstedt
03,3353024,Marxen,21439,53.311431000000006,10.009257,marxen
03,3353036,Undeloh,21274,53.19742900000001,9.975782,undeloh
03,3353001,Appel,21279,53.390684,9.744968,appel
03,3353008,Drestedt,21279,53.327674,9.773823,drestedt
03,3353014,Halvesbostel,21646,53.359409,9.600987,halvesbostel
03,3353019,Hollenstedt,21279,53.36716800000001,9.715423,hollenstedt
03,3353025,Moisburg,21647,53.40494,9.702446,moisburg
03,3353028,Regesbostel,21649,53.37851800000001,9.645208,regesbostel
03,3353039,Wenzendorf,21279,53.348011,9.773247,wenzendorf
03,3353003,Bendestorf,21227,53.339859,9.965791000000001,bendestorf
03,3353017,Harmstorf,21228,53.348172999999996,9.987203,harmstorf
03,3353020,Jesteburg,21266,53.306429,9.952786999999999,jesteburg
03,3353010,Eyendorf,21376,53.202349,10.153673,eyendorf
03,3353011,Garlstorf,21376,53.236989,10.102673,garlstorf
03,3353012,Garstedt,21441,53.285914,10.160485000000001,garstedt
03,3353013,Gödenstorf,21376,53.228515,10.123465,gödenstorf
03,3353030,Salzhausen,21376,53.225825,10.169305,salzhausen
03,3353034,Toppenstedt,21442,53.263436,10.10933,toppenstedt
03,3353037,Vierhöfen,21444,53.261044999999996,10.221535000000001,vierhöfen
03,3353042,Wulfsen,21445,53.300051,10.144323,wulfsen
03,3353006,Dohren,21255,53.30530600000001,9.70182,dohren
03,3353015,Handeloh,21256,53.244817000000005,9.833344,handeloh
03,3353018,Heidenau,21258,53.31436,9.652667,heidenau
03,3353021,Kakenstorf,21255,53.30721,9.766204,kakenstorf
03,3353022,Königsmoor,21255,53.232096999999996,9.639963,königsmoor
03,3353027,Otter,21259,53.240562,9.743028,otter
03,3353035,Tostedt,21255,53.28106,9.712322,tostedt
03,3353038,Welle,21261,53.240407,9.801616000000001,welle
03,3353041,Wistedt,21255,53.27039499999999,9.681416,wistedt
03,3354005,Gartow,29471,53.025397999999996,11.461486,gartow
03,3354007,Gorleben,29475,53.048304,11.356745,gorleben
03,3354010,Höhbeck,29478,53.062957,11.430528,höhbeck
03,3354020,Prezelle,29491,52.963602,11.400884,prezelle
03,3354021,Schnackenburg,29493,53.037209,11.566732,schnackenburg
03,3354003,Damnatz,29472,53.136244,11.175827,damnatz
03,3354004,Dannenberg (Elbe),29451,53.096495999999995,11.090108,dannenberg (elbe)
03,3354006,Göhrde,29473,53.126479,10.941018,göhrde
03,3354008,Gusborn,29476,53.078837,11.202897,gusborn
03,3354009,Hitzacker (Elbe),29456,53.148959999999995,11.036906,hitzacker (elbe)
03,3354011,Jameln,29479,53.040209999999995,11.075472,jameln
03,3354012,Karwitz,29481,53.087565000000005,11.015675,karwitz
03,3354014,Langendorf,29484,53.102229,11.253903999999999,langendorf
03,3354019,Neu Darchau,29490,53.227889000000005,10.884199,neu darchau
03,3354027,Zernien,29499,53.067603000000005,10.88551,zernien
03,3354001,Bergen an der Dumme,29468,52.890829000000004,10.956207000000001,bergen an der dumme
03,3354002,Clenze,29459,52.936751,10.954386999999999,clenze
03,3354013,Küsten,29482,52.976889,11.064805999999999,küsten
03,3354015,Lemgow,29485,52.915565,11.312539,lemgow
03,3354016,Luckau (Wendland),29487,52.927845999999995,11.04936,luckau (wendland)
03,3354017,Lübbow,29488,52.909636,11.181467999999999,lübbow
03,3354018,Lüchow (Wendland),29439,52.967743000000006,11.161706,lüchow (wendland)
03,3354022,Schnega,29465,52.890333999999996,10.892014999999999,schnega
